{
  "version": "2.2.0",
  "lastUpdate": "2024-02-03",
  "locations": [
    {
      "lat": 43.05546,
      "lon": 141.340956,
      "prefecture": "北海道",
      "city": "札幌市中央区",
      "jcc": "1101",
      "jcg": "11001"
    },
    {
      "lat": 43.09085,
      "lon": 141.340831,
      "prefecture": "北海道",
      "city": "札幌市北区",
      "jcc": "1102",
      "jcg": "11002"
    },
    {
      "lat": 43.076069,
      "lon": 141.363722,
      "prefecture": "北海道",
      "city": "札幌市東区",
      "jcc": "1103",
      "jcg": "11003"
    },
    {
      "lat": 43.047687,
      "lon": 141.405078,
      "prefecture": "北海道",
      "city": "札幌市白石区",
      "jcc": "1104",
      "jcg": "11004"
    },
    {
      "lat": 43.031291,
      "lon": 141.380106,
      "prefecture": "北海道",
      "city": "札幌市豊平区",
      "jcc": "1105",
      "jcg": "11005"
    },
    {
      "lat": 42.990031,
      "lon": 141.353497,
      "prefecture": "北海道",
      "city": "札幌市南区",
      "jcc": "1106",
      "jcg": "11006"
    },
    {
      "lat": 43.07447,
      "lon": 141.300889,
      "prefecture": "北海道",
      "city": "札幌市西区",
      "jcc": "1107",
      "jcg": "11007"
    },
    {
      "lat": 43.036408,
      "lon": 141.474789,
      "prefecture": "北海道",
      "city": "札幌市厚別区",
      "jcc": "1108",
      "jcg": "11008"
    },
    {
      "lat": 43.121944,
      "lon": 141.245632,
      "prefecture": "北海道",
      "city": "札幌市手稲区",
      "jcc": "1109",
      "jcg": "11009"
    },
    {
      "lat": 42.999636,
      "lon": 141.44383,
      "prefecture": "北海道",
      "city": "札幌市清田区",
      "jcc": "1110",
      "jcg": "11010"
    },
    {
      "lat": 41.768793,
      "lon": 140.72881,
      "prefecture": "北海道",
      "city": "函館市",
      "jcc": "1202",
      "jcg": "12002"
    },
    {
      "lat": 43.190717,
      "lon": 140.994662,
      "prefecture": "北海道",
      "city": "小樽市",
      "jcc": "1203",
      "jcg": "12003"
    },
    {
      "lat": 43.770636,
      "lon": 142.364819,
      "prefecture": "北海道",
      "city": "旭川市",
      "jcc": "1204",
      "jcg": "12004"
    },
    {
      "lat": 42.315231,
      "lon": 140.973799,
      "prefecture": "北海道",
      "city": "室蘭市",
      "jcc": "1205",
      "jcg": "12005"
    },
    {
      "lat": 42.984854,
      "lon": 144.381356,
      "prefecture": "北海道",
      "city": "釧路市",
      "jcc": "1206",
      "jcg": "12006"
    },
    {
      "lat": 42.923899,
      "lon": 143.196103,
      "prefecture": "北海道",
      "city": "帯広市",
      "jcc": "1207",
      "jcg": "12007"
    },
    {
      "lat": 43.804031,
      "lon": 143.895876,
      "prefecture": "北海道",
      "city": "北見市",
      "jcc": "1208",
      "jcg": "12008"
    },
    {
      "lat": 43.056734,
      "lon": 141.973896,
      "prefecture": "北海道",
      "city": "夕張市",
      "jcc": "1209",
      "jcg": "12009"
    },
    {
      "lat": 43.196206,
      "lon": 141.775933,
      "prefecture": "北海道",
      "city": "岩見沢市",
      "jcc": "1210",
      "jcg": "12010"
    },
    {
      "lat": 44.020632,
      "lon": 144.273398,
      "prefecture": "北海道",
      "city": "網走市",
      "jcc": "1211",
      "jcg": "12011"
    },
    {
      "lat": 43.940987,
      "lon": 141.637012,
      "prefecture": "北海道",
      "city": "留萌市",
      "jcc": "1212",
      "jcg": "12012"
    },
    {
      "lat": 42.634302,
      "lon": 141.605372,
      "prefecture": "北海道",
      "city": "苫小牧市",
      "jcc": "1213",
      "jcg": "12013"
    },
    {
      "lat": 45.415664,
      "lon": 141.673082,
      "prefecture": "北海道",
      "city": "稚内市",
      "jcc": "1214",
      "jcg": "12014"
    },
    {
      "lat": 43.332881,
      "lon": 141.853785,
      "prefecture": "北海道",
      "city": "美唄市",
      "jcc": "1215",
      "jcg": "12015"
    },
    {
      "lat": 43.518166,
      "lon": 142.189436,
      "prefecture": "北海道",
      "city": "芦別市",
      "jcc": "1216",
      "jcg": "12016"
    },
    {
      "lat": 43.103745,
      "lon": 141.536247,
      "prefecture": "北海道",
      "city": "江別市",
      "jcc": "1217",
      "jcg": "12017"
    },
    {
      "lat": 43.558074,
      "lon": 142.044211,
      "prefecture": "北海道",
      "city": "赤平市",
      "jcc": "1218",
      "jcg": "12018"
    },
    {
      "lat": 44.356484,
      "lon": 143.354503,
      "prefecture": "北海道",
      "city": "紋別市",
      "jcc": "1219",
      "jcg": "12019"
    },
    {
      "lat": 44.178734,
      "lon": 142.400404,
      "prefecture": "北海道",
      "city": "士別市",
      "jcc": "1220",
      "jcg": "12020"
    },
    {
      "lat": 44.355938,
      "lon": 142.463167,
      "prefecture": "北海道",
      "city": "名寄市",
      "jcc": "1221",
      "jcg": "12021"
    },
    {
      "lat": 43.245435,
      "lon": 141.875327,
      "prefecture": "北海道",
      "city": "三笠市",
      "jcc": "1222",
      "jcg": "12022"
    },
    {
      "lat": 43.330076,
      "lon": 145.58279,
      "prefecture": "北海道",
      "city": "根室市",
      "jcc": "1223",
      "jcg": "12023"
    },
    {
      "lat": 42.820958,
      "lon": 141.650876,
      "prefecture": "北海道",
      "city": "千歳市",
      "jcc": "1224",
      "jcg": "12024"
    },
    {
      "lat": 43.557795,
      "lon": 141.91019,
      "prefecture": "北海道",
      "city": "滝川市",
      "jcc": "1225",
      "jcg": "12025"
    },
    {
      "lat": 43.494843,
      "lon": 141.903465,
      "prefecture": "北海道",
      "city": "砂川市",
      "jcc": "1226",
      "jcg": "12026"
    },
    {
      "lat": 43.521353,
      "lon": 142.034568,
      "prefecture": "北海道",
      "city": "歌志内市",
      "jcc": "1227",
      "jcg": "12027"
    },
    {
      "lat": 43.72326,
      "lon": 142.053538,
      "prefecture": "北海道",
      "city": "深川市",
      "jcc": "1228",
      "jcg": "12028"
    },
    {
      "lat": 43.34214,
      "lon": 142.383225,
      "prefecture": "北海道",
      "city": "富良野市",
      "jcc": "1229",
      "jcg": "12029"
    },
    {
      "lat": 42.41276,
      "lon": 141.106632,
      "prefecture": "北海道",
      "city": "登別市",
      "jcc": "1230",
      "jcg": "12030"
    },
    {
      "lat": 42.882562,
      "lon": 141.577815,
      "prefecture": "北海道",
      "city": "恵庭市",
      "jcc": "1231",
      "jcg": "12031"
    },
    {
      "lat": 42.471851,
      "lon": 140.864679,
      "prefecture": "北海道",
      "city": "伊達市",
      "jcc": "1233",
      "jcg": "12033"
    },
    {
      "lat": 42.98563,
      "lon": 141.563543,
      "prefecture": "北海道",
      "city": "北広島市",
      "jcc": "1234",
      "jcg": "12034"
    },
    {
      "lat": 43.171384,
      "lon": 141.31552,
      "prefecture": "北海道",
      "city": "石狩市",
      "jcc": "1235",
      "jcg": "12035"
    },
    {
      "lat": 41.82406,
      "lon": 140.652903,
      "prefecture": "北海道",
      "city": "北斗市",
      "jcc": "1236",
      "jcg": "12036"
    },
    {
      "lat": 43.223683,
      "lon": 141.517072,
      "prefecture": "北海道",
      "city": "石狩郡当別町",
      "jcc": "1303",
      "jcg": "13003"
    },
    {
      "lat": 43.225424,
      "lon": 141.649216,
      "prefecture": "北海道",
      "city": "石狩郡新篠津村",
      "jcc": "1304",
      "jcg": "13004"
    },
    {
      "lat": 41.430037,
      "lon": 140.110435,
      "prefecture": "北海道",
      "city": "松前郡松前町",
      "jcc": "1331",
      "jcg": "13031"
    },
    {
      "lat": 41.483802,
      "lon": 140.251326,
      "prefecture": "北海道",
      "city": "松前郡福島町",
      "jcc": "1332",
      "jcg": "13032"
    },
    {
      "lat": 41.598356,
      "lon": 140.418963,
      "prefecture": "北海道",
      "city": "上磯郡知内町",
      "jcc": "1333",
      "jcg": "13033"
    },
    {
      "lat": 41.678264,
      "lon": 140.437568,
      "prefecture": "北海道",
      "city": "上磯郡木古内町",
      "jcc": "1334",
      "jcg": "13034"
    },
    {
      "lat": 41.89572,
      "lon": 140.69428,
      "prefecture": "北海道",
      "city": "亀田郡七飯町",
      "jcc": "1337",
      "jcg": "13037"
    },
    {
      "lat": 42.038487,
      "lon": 140.815939,
      "prefecture": "北海道",
      "city": "茅部郡鹿部町",
      "jcc": "1343",
      "jcg": "13043"
    },
    {
      "lat": 42.104795,
      "lon": 140.576324,
      "prefecture": "北海道",
      "city": "茅部郡森町",
      "jcc": "1345",
      "jcg": "13045"
    },
    {
      "lat": 42.255999,
      "lon": 140.265281,
      "prefecture": "北海道",
      "city": "二海郡八雲町",
      "jcc": "1346",
      "jcg": "13046"
    },
    {
      "lat": 42.513688,
      "lon": 140.380633,
      "prefecture": "北海道",
      "city": "山越郡長万部町",
      "jcc": "1347",
      "jcg": "13047"
    },
    {
      "lat": 41.869156,
      "lon": 140.12746,
      "prefecture": "北海道",
      "city": "檜山郡江差町",
      "jcc": "1361",
      "jcg": "13061"
    },
    {
      "lat": 41.801082,
      "lon": 140.121348,
      "prefecture": "北海道",
      "city": "檜山郡上ノ国町",
      "jcc": "1362",
      "jcg": "13062"
    },
    {
      "lat": 41.920901,
      "lon": 140.225472,
      "prefecture": "北海道",
      "city": "檜山郡厚沢部町",
      "jcc": "1363",
      "jcg": "13063"
    },
    {
      "lat": 41.968501,
      "lon": 140.135719,
      "prefecture": "北海道",
      "city": "爾志郡乙部町",
      "jcc": "1364",
      "jcg": "13064"
    },
    {
      "lat": 42.172278,
      "lon": 139.514008,
      "prefecture": "北海道",
      "city": "奥尻郡奥尻町",
      "jcc": "1367",
      "jcg": "13067"
    },
    {
      "lat": 42.429422,
      "lon": 140.008878,
      "prefecture": "北海道",
      "city": "瀬棚郡今金町",
      "jcc": "1370",
      "jcg": "13070"
    },
    {
      "lat": 42.417161,
      "lon": 139.882988,
      "prefecture": "北海道",
      "city": "久遠郡せたな町",
      "jcc": "1371",
      "jcg": "13071"
    },
    {
      "lat": 42.70052,
      "lon": 140.06146,
      "prefecture": "北海道",
      "city": "島牧郡島牧村",
      "jcc": "1391",
      "jcg": "13091"
    },
    {
      "lat": 42.790979,
      "lon": 140.22898,
      "prefecture": "北海道",
      "city": "寿都郡寿都町",
      "jcc": "1392",
      "jcg": "13092"
    },
    {
      "lat": 42.667864,
      "lon": 140.30754,
      "prefecture": "北海道",
      "city": "寿都郡黒松内町",
      "jcc": "1393",
      "jcg": "13093"
    },
    {
      "lat": 42.809075,
      "lon": 140.528312,
      "prefecture": "北海道",
      "city": "磯谷郡蘭越町",
      "jcc": "1394",
      "jcg": "13094"
    },
    {
      "lat": 42.804705,
      "lon": 140.687493,
      "prefecture": "北海道",
      "city": "虻田郡ニセコ町",
      "jcc": "1395",
      "jcg": "13095"
    },
    {
      "lat": 42.762971,
      "lon": 140.803744,
      "prefecture": "北海道",
      "city": "虻田郡真狩村",
      "jcc": "1396",
      "jcg": "13096"
    },
    {
      "lat": 42.73736,
      "lon": 140.875591,
      "prefecture": "北海道",
      "city": "虻田郡留寿都村",
      "jcc": "1397",
      "jcg": "13097"
    },
    {
      "lat": 42.795472,
      "lon": 140.9345,
      "prefecture": "北海道",
      "city": "虻田郡喜茂別町",
      "jcc": "1398",
      "jcg": "13098"
    },
    {
      "lat": 42.858208,
      "lon": 140.884088,
      "prefecture": "北海道",
      "city": "虻田郡京極町",
      "jcc": "1399",
      "jcg": "13099"
    },
    {
      "lat": 42.901829,
      "lon": 140.758698,
      "prefecture": "北海道",
      "city": "虻田郡倶知安町",
      "jcc": "1400",
      "jcg": "14000"
    },
    {
      "lat": 42.980398,
      "lon": 140.611187,
      "prefecture": "北海道",
      "city": "岩内郡共和町",
      "jcc": "1401",
      "jcg": "14001"
    },
    {
      "lat": 42.979785,
      "lon": 140.514753,
      "prefecture": "北海道",
      "city": "岩内郡岩内町",
      "jcc": "1402",
      "jcg": "14002"
    },
    {
      "lat": 43.063355,
      "lon": 140.498859,
      "prefecture": "北海道",
      "city": "古宇郡泊村",
      "jcc": "1403",
      "jcg": "14003"
    },
    {
      "lat": 43.143813,
      "lon": 140.430742,
      "prefecture": "北海道",
      "city": "古宇郡神恵内村",
      "jcc": "1404",
      "jcg": "14004"
    },
    {
      "lat": 43.298853,
      "lon": 140.598193,
      "prefecture": "北海道",
      "city": "積丹郡積丹町",
      "jcc": "1405",
      "jcg": "14005"
    },
    {
      "lat": 43.26536,
      "lon": 140.63882,
      "prefecture": "北海道",
      "city": "古平郡古平町",
      "jcc": "1406",
      "jcg": "14006"
    },
    {
      "lat": 43.151691,
      "lon": 140.76613,
      "prefecture": "北海道",
      "city": "余市郡仁木町",
      "jcc": "1407",
      "jcg": "14007"
    },
    {
      "lat": 43.195232,
      "lon": 140.783467,
      "prefecture": "北海道",
      "city": "余市郡余市町",
      "jcc": "1408",
      "jcg": "14008"
    },
    {
      "lat": 43.08349,
      "lon": 140.813481,
      "prefecture": "北海道",
      "city": "余市郡赤井川村",
      "jcc": "1409",
      "jcg": "14009"
    },
    {
      "lat": 43.063727,
      "lon": 141.650069,
      "prefecture": "北海道",
      "city": "空知郡南幌町",
      "jcc": "1423",
      "jcg": "14023"
    },
    {
      "lat": 43.425106,
      "lon": 141.882788,
      "prefecture": "北海道",
      "city": "空知郡奈井江町",
      "jcc": "1424",
      "jcg": "14024"
    },
    {
      "lat": 43.482608,
      "lon": 141.984084,
      "prefecture": "北海道",
      "city": "空知郡上砂川町",
      "jcc": "1425",
      "jcg": "14025"
    },
    {
      "lat": 42.999605,
      "lon": 141.790338,
      "prefecture": "北海道",
      "city": "夕張郡由仁町",
      "jcc": "1427",
      "jcg": "14027"
    },
    {
      "lat": 43.010353,
      "lon": 141.695252,
      "prefecture": "北海道",
      "city": "夕張郡長沼町",
      "jcc": "1428",
      "jcg": "14028"
    },
    {
      "lat": 43.056309,
      "lon": 141.784255,
      "prefecture": "北海道",
      "city": "夕張郡栗山町",
      "jcc": "1429",
      "jcg": "14029"
    },
    {
      "lat": 43.338436,
      "lon": 141.669451,
      "prefecture": "北海道",
      "city": "樺戸郡月形町",
      "jcc": "1430",
      "jcg": "14030"
    },
    {
      "lat": 43.430322,
      "lon": 141.818837,
      "prefecture": "北海道",
      "city": "樺戸郡浦臼町",
      "jcc": "1431",
      "jcg": "14031"
    },
    {
      "lat": 43.548547,
      "lon": 141.877032,
      "prefecture": "北海道",
      "city": "樺戸郡新十津川町",
      "jcc": "1432",
      "jcg": "14032"
    },
    {
      "lat": 43.700112,
      "lon": 141.961711,
      "prefecture": "北海道",
      "city": "雨竜郡妹背牛町",
      "jcc": "1433",
      "jcg": "14033"
    },
    {
      "lat": 43.767013,
      "lon": 141.957958,
      "prefecture": "北海道",
      "city": "雨竜郡秩父別町",
      "jcc": "1434",
      "jcg": "14034"
    },
    {
      "lat": 43.643924,
      "lon": 141.88899,
      "prefecture": "北海道",
      "city": "雨竜郡雨竜町",
      "jcc": "1436",
      "jcg": "14036"
    },
    {
      "lat": 43.731356,
      "lon": 141.879022,
      "prefecture": "北海道",
      "city": "雨竜郡北竜町",
      "jcc": "1437",
      "jcg": "14037"
    },
    {
      "lat": 43.806802,
      "lon": 141.933272,
      "prefecture": "北海道",
      "city": "雨竜郡沼田町",
      "jcc": "1438",
      "jcg": "14038"
    },
    {
      "lat": 43.843353,
      "lon": 142.354451,
      "prefecture": "北海道",
      "city": "上川郡鷹栖町",
      "jcc": "1452",
      "jcg": "14052"
    },
    {
      "lat": 43.696626,
      "lon": 142.451437,
      "prefecture": "北海道",
      "city": "上川郡東神楽町",
      "jcc": "1453",
      "jcg": "14053"
    },
    {
      "lat": 43.828177,
      "lon": 142.508366,
      "prefecture": "北海道",
      "city": "上川郡当麻町",
      "jcc": "1454",
      "jcg": "14054"
    },
    {
      "lat": 43.875076,
      "lon": 142.477552,
      "prefecture": "北海道",
      "city": "上川郡比布町",
      "jcc": "1455",
      "jcg": "14055"
    },
    {
      "lat": 43.906504,
      "lon": 142.577973,
      "prefecture": "北海道",
      "city": "上川郡愛別町",
      "jcc": "1456",
      "jcg": "14056"
    },
    {
      "lat": 43.84718,
      "lon": 142.770431,
      "prefecture": "北海道",
      "city": "上川郡上川町",
      "jcc": "1457",
      "jcg": "14057"
    },
    {
      "lat": 43.698974,
      "lon": 142.510317,
      "prefecture": "北海道",
      "city": "上川郡東川町",
      "jcc": "1458",
      "jcg": "14058"
    },
    {
      "lat": 43.588187,
      "lon": 142.466972,
      "prefecture": "北海道",
      "city": "上川郡美瑛町",
      "jcc": "1459",
      "jcg": "14059"
    },
    {
      "lat": 43.455661,
      "lon": 142.467073,
      "prefecture": "北海道",
      "city": "空知郡上富良野町",
      "jcc": "1460",
      "jcg": "14060"
    },
    {
      "lat": 43.405671,
      "lon": 142.425136,
      "prefecture": "北海道",
      "city": "空知郡中富良野町",
      "jcc": "1461",
      "jcg": "14061"
    },
    {
      "lat": 43.163979,
      "lon": 142.568488,
      "prefecture": "北海道",
      "city": "空知郡南富良野町",
      "jcc": "1462",
      "jcg": "14062"
    },
    {
      "lat": 42.979779,
      "lon": 142.398357,
      "prefecture": "北海道",
      "city": "勇払郡占冠村",
      "jcc": "1463",
      "jcg": "14063"
    },
    {
      "lat": 44.023068,
      "lon": 142.413306,
      "prefecture": "北海道",
      "city": "上川郡和寒町",
      "jcc": "1464",
      "jcg": "14064"
    },
    {
      "lat": 44.095677,
      "lon": 142.361221,
      "prefecture": "北海道",
      "city": "上川郡剣淵町",
      "jcc": "1465",
      "jcg": "14065"
    },
    {
      "lat": 44.302503,
      "lon": 142.635308,
      "prefecture": "北海道",
      "city": "上川郡下川町",
      "jcc": "1468",
      "jcg": "14068"
    },
    {
      "lat": 44.481126,
      "lon": 142.343014,
      "prefecture": "北海道",
      "city": "中川郡美深町",
      "jcc": "1469",
      "jcg": "14069"
    },
    {
      "lat": 44.725004,
      "lon": 142.262464,
      "prefecture": "北海道",
      "city": "中川郡音威子府村",
      "jcc": "1470",
      "jcg": "14070"
    },
    {
      "lat": 44.811346,
      "lon": 142.071438,
      "prefecture": "北海道",
      "city": "中川郡中川町",
      "jcc": "1471",
      "jcg": "14071"
    },
    {
      "lat": 44.009854,
      "lon": 142.153933,
      "prefecture": "北海道",
      "city": "雨竜郡幌加内町",
      "jcc": "1472",
      "jcg": "14072"
    },
    {
      "lat": 43.856033,
      "lon": 141.525198,
      "prefecture": "北海道",
      "city": "増毛郡増毛町",
      "jcc": "1481",
      "jcg": "14081"
    },
    {
      "lat": 44.015108,
      "lon": 141.662575,
      "prefecture": "北海道",
      "city": "留萌郡小平町",
      "jcc": "1482",
      "jcg": "14082"
    },
    {
      "lat": 44.30604,
      "lon": 141.653022,
      "prefecture": "北海道",
      "city": "苫前郡苫前町",
      "jcc": "1483",
      "jcg": "14083"
    },
    {
      "lat": 44.360683,
      "lon": 141.69725,
      "prefecture": "北海道",
      "city": "苫前郡羽幌町",
      "jcc": "1484",
      "jcg": "14084"
    },
    {
      "lat": 44.532154,
      "lon": 141.766409,
      "prefecture": "北海道",
      "city": "苫前郡初山別村",
      "jcc": "1485",
      "jcg": "14085"
    },
    {
      "lat": 44.722139,
      "lon": 141.792369,
      "prefecture": "北海道",
      "city": "天塩郡遠別町",
      "jcc": "1486",
      "jcg": "14086"
    },
    {
      "lat": 44.888341,
      "lon": 141.745397,
      "prefecture": "北海道",
      "city": "天塩郡天塩町",
      "jcc": "1487",
      "jcg": "14087"
    },
    {
      "lat": 45.330616,
      "lon": 142.109192,
      "prefecture": "北海道",
      "city": "宗谷郡猿払村",
      "jcc": "1511",
      "jcg": "15011"
    },
    {
      "lat": 45.123694,
      "lon": 142.359948,
      "prefecture": "北海道",
      "city": "枝幸郡浜頓別町",
      "jcc": "1512",
      "jcg": "15012"
    },
    {
      "lat": 44.969819,
      "lon": 142.286735,
      "prefecture": "北海道",
      "city": "枝幸郡中頓別町",
      "jcc": "1513",
      "jcg": "15013"
    },
    {
      "lat": 44.938714,
      "lon": 142.581411,
      "prefecture": "北海道",
      "city": "枝幸郡枝幸町",
      "jcc": "1514",
      "jcg": "15014"
    },
    {
      "lat": 45.102933,
      "lon": 141.777505,
      "prefecture": "北海道",
      "city": "天塩郡豊富町",
      "jcc": "1516",
      "jcg": "15016"
    },
    {
      "lat": 45.30302,
      "lon": 141.047689,
      "prefecture": "北海道",
      "city": "礼文郡礼文町",
      "jcc": "1517",
      "jcg": "15017"
    },
    {
      "lat": 45.187068,
      "lon": 141.139627,
      "prefecture": "北海道",
      "city": "利尻郡利尻町",
      "jcc": "1518",
      "jcg": "15018"
    },
    {
      "lat": 45.247735,
      "lon": 141.214344,
      "prefecture": "北海道",
      "city": "利尻郡利尻富士町",
      "jcc": "1519",
      "jcg": "15019"
    },
    {
      "lat": 45.017711,
      "lon": 141.849384,
      "prefecture": "北海道",
      "city": "天塩郡幌延町",
      "jcc": "1520",
      "jcg": "15020"
    },
    {
      "lat": 43.823782,
      "lon": 144.107042,
      "prefecture": "北海道",
      "city": "網走郡美幌町",
      "jcc": "1543",
      "jcg": "15043"
    },
    {
      "lat": 43.706453,
      "lon": 144.025032,
      "prefecture": "北海道",
      "city": "網走郡津別町",
      "jcc": "1544",
      "jcg": "15044"
    },
    {
      "lat": 43.911513,
      "lon": 144.670605,
      "prefecture": "北海道",
      "city": "斜里郡斜里町",
      "jcc": "1545",
      "jcg": "15045"
    },
    {
      "lat": 43.835216,
      "lon": 144.594562,
      "prefecture": "北海道",
      "city": "斜里郡清里町",
      "jcc": "1546",
      "jcg": "15046"
    },
    {
      "lat": 43.856852,
      "lon": 144.462025,
      "prefecture": "北海道",
      "city": "斜里郡小清水町",
      "jcc": "1547",
      "jcg": "15047"
    },
    {
      "lat": 43.725255,
      "lon": 143.74173,
      "prefecture": "北海道",
      "city": "常呂郡訓子府町",
      "jcc": "1549",
      "jcg": "15049"
    },
    {
      "lat": 43.676323,
      "lon": 143.586397,
      "prefecture": "北海道",
      "city": "常呂郡置戸町",
      "jcc": "1550",
      "jcg": "15050"
    },
    {
      "lat": 44.017756,
      "lon": 143.774506,
      "prefecture": "北海道",
      "city": "常呂郡佐呂間町",
      "jcc": "1552",
      "jcg": "15052"
    },
    {
      "lat": 44.061953,
      "lon": 143.527947,
      "prefecture": "北海道",
      "city": "紋別郡遠軽町",
      "jcc": "1555",
      "jcg": "15055"
    },
    {
      "lat": 44.151598,
      "lon": 143.572894,
      "prefecture": "北海道",
      "city": "紋別郡湧別町",
      "jcc": "1559",
      "jcg": "15059"
    },
    {
      "lat": 44.192203,
      "lon": 143.077588,
      "prefecture": "北海道",
      "city": "紋別郡滝上町",
      "jcc": "1560",
      "jcg": "15060"
    },
    {
      "lat": 44.469878,
      "lon": 143.123891,
      "prefecture": "北海道",
      "city": "紋別郡興部町",
      "jcc": "1561",
      "jcg": "15061"
    },
    {
      "lat": 44.328853,
      "lon": 142.944392,
      "prefecture": "北海道",
      "city": "紋別郡西興部村",
      "jcc": "1562",
      "jcg": "15062"
    },
    {
      "lat": 44.582551,
      "lon": 142.96181,
      "prefecture": "北海道",
      "city": "紋別郡雄武町",
      "jcc": "1563",
      "jcg": "15063"
    },
    {
      "lat": 43.91185,
      "lon": 144.172709,
      "prefecture": "北海道",
      "city": "網走郡大空町",
      "jcc": "1564",
      "jcg": "15064"
    },
    {
      "lat": 42.583447,
      "lon": 140.711832,
      "prefecture": "北海道",
      "city": "虻田郡豊浦町",
      "jcc": "1571",
      "jcg": "15071"
    },
    {
      "lat": 42.552283,
      "lon": 140.886014,
      "prefecture": "北海道",
      "city": "有珠郡壮瞥町",
      "jcc": "1575",
      "jcg": "15075"
    },
    {
      "lat": 42.55126,
      "lon": 141.355955,
      "prefecture": "北海道",
      "city": "白老郡白老町",
      "jcc": "1578",
      "jcg": "15078"
    },
    {
      "lat": 42.723662,
      "lon": 141.877935,
      "prefecture": "北海道",
      "city": "勇払郡厚真町",
      "jcc": "1581",
      "jcg": "15081"
    },
    {
      "lat": 42.551269,
      "lon": 140.764098,
      "prefecture": "北海道",
      "city": "虻田郡洞爺湖町",
      "jcc": "1584",
      "jcg": "15084"
    },
    {
      "lat": 42.762815,
      "lon": 141.818017,
      "prefecture": "北海道",
      "city": "勇払郡安平町",
      "jcc": "1585",
      "jcg": "15085"
    },
    {
      "lat": 42.574807,
      "lon": 141.92675,
      "prefecture": "北海道",
      "city": "勇払郡むかわ町",
      "jcc": "1586",
      "jcg": "15086"
    },
    {
      "lat": 42.48029,
      "lon": 142.074398,
      "prefecture": "北海道",
      "city": "沙流郡日高町",
      "jcc": "1601",
      "jcg": "16001"
    },
    {
      "lat": 42.585081,
      "lon": 142.128523,
      "prefecture": "北海道",
      "city": "沙流郡平取町",
      "jcc": "1602",
      "jcg": "16002"
    },
    {
      "lat": 42.362406,
      "lon": 142.318332,
      "prefecture": "北海道",
      "city": "新冠郡新冠町",
      "jcc": "1604",
      "jcg": "16004"
    },
    {
      "lat": 42.168516,
      "lon": 142.76812,
      "prefecture": "北海道",
      "city": "浦河郡浦河町",
      "jcc": "1607",
      "jcg": "16007"
    },
    {
      "lat": 42.127853,
      "lon": 142.93355,
      "prefecture": "北海道",
      "city": "様似郡様似町",
      "jcc": "1608",
      "jcg": "16008"
    },
    {
      "lat": 42.01628,
      "lon": 143.148443,
      "prefecture": "北海道",
      "city": "幌泉郡えりも町",
      "jcc": "1609",
      "jcg": "16009"
    },
    {
      "lat": 42.341281,
      "lon": 142.368591,
      "prefecture": "北海道",
      "city": "日高郡新ひだか町",
      "jcc": "1610",
      "jcg": "16010"
    },
    {
      "lat": 42.994143,
      "lon": 143.19796,
      "prefecture": "北海道",
      "city": "河東郡音更町",
      "jcc": "1631",
      "jcg": "16031"
    },
    {
      "lat": 43.168027,
      "lon": 143.241377,
      "prefecture": "北海道",
      "city": "河東郡士幌町",
      "jcc": "1632",
      "jcg": "16032"
    },
    {
      "lat": 43.232548,
      "lon": 143.296189,
      "prefecture": "北海道",
      "city": "河東郡上士幌町",
      "jcc": "1633",
      "jcg": "16033"
    },
    {
      "lat": 43.099102,
      "lon": 142.989043,
      "prefecture": "北海道",
      "city": "河東郡鹿追町",
      "jcc": "1634",
      "jcg": "16034"
    },
    {
      "lat": 43.079796,
      "lon": 142.838737,
      "prefecture": "北海道",
      "city": "上川郡新得町",
      "jcc": "1635",
      "jcg": "16035"
    },
    {
      "lat": 43.011356,
      "lon": 142.88454,
      "prefecture": "北海道",
      "city": "上川郡清水町",
      "jcc": "1636",
      "jcg": "16036"
    },
    {
      "lat": 42.91186,
      "lon": 143.050863,
      "prefecture": "北海道",
      "city": "河西郡芽室町",
      "jcc": "1637",
      "jcg": "16037"
    },
    {
      "lat": 42.697614,
      "lon": 143.132443,
      "prefecture": "北海道",
      "city": "河西郡中札内村",
      "jcc": "1638",
      "jcg": "16038"
    },
    {
      "lat": 42.650351,
      "lon": 143.187858,
      "prefecture": "北海道",
      "city": "河西郡更別村",
      "jcc": "1639",
      "jcg": "16039"
    },
    {
      "lat": 42.49754,
      "lon": 143.278814,
      "prefecture": "北海道",
      "city": "広尾郡大樹町",
      "jcc": "1641",
      "jcg": "16041"
    },
    {
      "lat": 42.285838,
      "lon": 143.311496,
      "prefecture": "北海道",
      "city": "広尾郡広尾町",
      "jcc": "1642",
      "jcg": "16042"
    },
    {
      "lat": 42.908234,
      "lon": 143.355969,
      "prefecture": "北海道",
      "city": "中川郡幕別町",
      "jcc": "1643",
      "jcg": "16043"
    },
    {
      "lat": 42.928955,
      "lon": 143.448355,
      "prefecture": "北海道",
      "city": "中川郡池田町",
      "jcc": "1644",
      "jcg": "16044"
    },
    {
      "lat": 42.801052,
      "lon": 143.505919,
      "prefecture": "北海道",
      "city": "中川郡豊頃町",
      "jcc": "1645",
      "jcg": "16045"
    },
    {
      "lat": 43.124712,
      "lon": 143.610573,
      "prefecture": "北海道",
      "city": "中川郡本別町",
      "jcc": "1646",
      "jcg": "16046"
    },
    {
      "lat": 43.244801,
      "lon": 143.553905,
      "prefecture": "北海道",
      "city": "足寄郡足寄町",
      "jcc": "1647",
      "jcg": "16047"
    },
    {
      "lat": 43.468981,
      "lon": 143.747243,
      "prefecture": "北海道",
      "city": "足寄郡陸別町",
      "jcc": "1648",
      "jcg": "16048"
    },
    {
      "lat": 42.808927,
      "lon": 143.658396,
      "prefecture": "北海道",
      "city": "十勝郡浦幌町",
      "jcc": "1649",
      "jcg": "16049"
    },
    {
      "lat": 42.996045,
      "lon": 144.466032,
      "prefecture": "北海道",
      "city": "釧路郡釧路町",
      "jcc": "1661",
      "jcg": "16061"
    },
    {
      "lat": 43.051871,
      "lon": 144.84736,
      "prefecture": "北海道",
      "city": "厚岸郡厚岸町",
      "jcc": "1662",
      "jcg": "16062"
    },
    {
      "lat": 43.077145,
      "lon": 145.129369,
      "prefecture": "北海道",
      "city": "厚岸郡浜中町",
      "jcc": "1663",
      "jcg": "16063"
    },
    {
      "lat": 43.30344,
      "lon": 144.600779,
      "prefecture": "北海道",
      "city": "川上郡標茶町",
      "jcc": "1664",
      "jcg": "16064"
    },
    {
      "lat": 43.485348,
      "lon": 144.459221,
      "prefecture": "北海道",
      "city": "川上郡弟子屈町",
      "jcc": "1665",
      "jcg": "16065"
    },
    {
      "lat": 43.229887,
      "lon": 144.321216,
      "prefecture": "北海道",
      "city": "阿寒郡鶴居村",
      "jcc": "1667",
      "jcg": "16067"
    },
    {
      "lat": 42.956177,
      "lon": 144.071805,
      "prefecture": "北海道",
      "city": "白糠郡白糠町",
      "jcc": "1668",
      "jcg": "16068"
    },
    {
      "lat": 43.393787,
      "lon": 145.117271,
      "prefecture": "北海道",
      "city": "野付郡別海町",
      "jcc": "1691",
      "jcg": "16091"
    },
    {
      "lat": 43.555242,
      "lon": 144.971391,
      "prefecture": "北海道",
      "city": "標津郡中標津町",
      "jcc": "1692",
      "jcg": "16092"
    },
    {
      "lat": 43.661387,
      "lon": 145.131319,
      "prefecture": "北海道",
      "city": "標津郡標津町",
      "jcc": "1693",
      "jcg": "16093"
    },
    {
      "lat": 44.021876,
      "lon": 145.18962,
      "prefecture": "北海道",
      "city": "目梨郡羅臼町",
      "jcc": "1694",
      "jcg": "16094"
    },
    {
      "lat": 40.822072,
      "lon": 140.747365,
      "prefecture": "青森県",
      "city": "青森市",
      "jcc": "2201",
      "jcg": "22001"
    },
    {
      "lat": 40.603124,
      "lon": 140.463922,
      "prefecture": "青森県",
      "city": "弘前市",
      "jcc": "2202",
      "jcg": "22002"
    },
    {
      "lat": 40.512284,
      "lon": 141.488399,
      "prefecture": "青森県",
      "city": "八戸市",
      "jcc": "2203",
      "jcg": "22003"
    },
    {
      "lat": 40.642632,
      "lon": 140.594645,
      "prefecture": "青森県",
      "city": "黒石市",
      "jcc": "2204",
      "jcg": "22004"
    },
    {
      "lat": 40.808002,
      "lon": 140.44009,
      "prefecture": "青森県",
      "city": "五所川原市",
      "jcc": "2205",
      "jcg": "22005"
    },
    {
      "lat": 40.612703,
      "lon": 141.205908,
      "prefecture": "青森県",
      "city": "十和田市",
      "jcc": "2206",
      "jcg": "22006"
    },
    {
      "lat": 40.683134,
      "lon": 141.368976,
      "prefecture": "青森県",
      "city": "三沢市",
      "jcc": "2207",
      "jcg": "22007"
    },
    {
      "lat": 41.292746,
      "lon": 141.183476,
      "prefecture": "青森県",
      "city": "むつ市",
      "jcc": "2208",
      "jcg": "22008"
    },
    {
      "lat": 40.808639,
      "lon": 140.380059,
      "prefecture": "青森県",
      "city": "つがる市",
      "jcc": "2209",
      "jcg": "22009"
    },
    {
      "lat": 40.584011,
      "lon": 140.566478,
      "prefecture": "青森県",
      "city": "平川市",
      "jcc": "2210",
      "jcg": "22010"
    },
    {
      "lat": 40.926031,
      "lon": 140.95592,
      "prefecture": "青森県",
      "city": "東津軽郡平内町",
      "jcc": "2301",
      "jcg": "23001"
    },
    {
      "lat": 41.181757,
      "lon": 140.481654,
      "prefecture": "青森県",
      "city": "東津軽郡今別町",
      "jcc": "2303",
      "jcg": "23003"
    },
    {
      "lat": 40.971714,
      "lon": 140.655966,
      "prefecture": "青森県",
      "city": "東津軽郡蓬田村",
      "jcc": "2304",
      "jcg": "23004"
    },
    {
      "lat": 41.043159,
      "lon": 140.632296,
      "prefecture": "青森県",
      "city": "東津軽郡外ヶ浜町",
      "jcc": "2307",
      "jcg": "23007"
    },
    {
      "lat": 40.779913,
      "lon": 140.208695,
      "prefecture": "青森県",
      "city": "西津軽郡鰺ヶ沢町",
      "jcc": "2321",
      "jcg": "23021"
    },
    {
      "lat": 40.647895,
      "lon": 139.927375,
      "prefecture": "青森県",
      "city": "西津軽郡深浦町",
      "jcc": "2323",
      "jcg": "23023"
    },
    {
      "lat": 40.576709,
      "lon": 140.296288,
      "prefecture": "青森県",
      "city": "中津軽郡西目屋村",
      "jcc": "2343",
      "jcg": "23043"
    },
    {
      "lat": 40.656069,
      "lon": 140.502811,
      "prefecture": "青森県",
      "city": "南津軽郡藤崎町",
      "jcc": "2361",
      "jcg": "23061"
    },
    {
      "lat": 40.518188,
      "lon": 140.567828,
      "prefecture": "青森県",
      "city": "南津軽郡大鰐町",
      "jcc": "2362",
      "jcg": "23062"
    },
    {
      "lat": 40.631252,
      "lon": 140.550116,
      "prefecture": "青森県",
      "city": "南津軽郡田舎館村",
      "jcc": "2367",
      "jcg": "23067"
    },
    {
      "lat": 40.695894,
      "lon": 140.457324,
      "prefecture": "青森県",
      "city": "北津軽郡板柳町",
      "jcc": "2381",
      "jcg": "23081"
    },
    {
      "lat": 40.758605,
      "lon": 140.428382,
      "prefecture": "青森県",
      "city": "北津軽郡鶴田町",
      "jcc": "2384",
      "jcg": "23084"
    },
    {
      "lat": 40.965179,
      "lon": 140.43984,
      "prefecture": "青森県",
      "city": "北津軽郡中泊町",
      "jcc": "2387",
      "jcg": "23087"
    },
    {
      "lat": 40.864469,
      "lon": 141.128757,
      "prefecture": "青森県",
      "city": "上北郡野辺地町",
      "jcc": "2401",
      "jcg": "24001"
    },
    {
      "lat": 40.697416,
      "lon": 141.151021,
      "prefecture": "青森県",
      "city": "上北郡七戸町",
      "jcc": "2402",
      "jcg": "24002"
    },
    {
      "lat": 40.609521,
      "lon": 141.324949,
      "prefecture": "青森県",
      "city": "上北郡六戸町",
      "jcc": "2405",
      "jcg": "24005"
    },
    {
      "lat": 41.083147,
      "lon": 141.247793,
      "prefecture": "青森県",
      "city": "上北郡横浜町",
      "jcc": "2406",
      "jcg": "24006"
    },
    {
      "lat": 40.727876,
      "lon": 141.257882,
      "prefecture": "青森県",
      "city": "上北郡東北町",
      "jcc": "2408",
      "jcg": "24008"
    },
    {
      "lat": 40.967344,
      "lon": 141.374552,
      "prefecture": "青森県",
      "city": "上北郡六ヶ所村",
      "jcc": "2411",
      "jcg": "24011"
    },
    {
      "lat": 40.599107,
      "lon": 141.397797,
      "prefecture": "青森県",
      "city": "上北郡おいらせ町",
      "jcc": "2412",
      "jcg": "24012"
    },
    {
      "lat": 41.526771,
      "lon": 140.907438,
      "prefecture": "青森県",
      "city": "下北郡大間町",
      "jcc": "2423",
      "jcg": "24023"
    },
    {
      "lat": 41.277787,
      "lon": 141.328936,
      "prefecture": "青森県",
      "city": "下北郡東通村",
      "jcc": "2424",
      "jcg": "24024"
    },
    {
      "lat": 41.487574,
      "lon": 140.995729,
      "prefecture": "青森県",
      "city": "下北郡風間浦村",
      "jcc": "2425",
      "jcg": "24025"
    },
    {
      "lat": 41.429706,
      "lon": 140.859129,
      "prefecture": "青森県",
      "city": "下北郡佐井村",
      "jcc": "2426",
      "jcg": "24026"
    },
    {
      "lat": 40.378407,
      "lon": 141.258745,
      "prefecture": "青森県",
      "city": "三戸郡三戸町",
      "jcc": "2441",
      "jcg": "24041"
    },
    {
      "lat": 40.531225,
      "lon": 141.30779,
      "prefecture": "青森県",
      "city": "三戸郡五戸町",
      "jcc": "2442",
      "jcg": "24042"
    },
    {
      "lat": 40.339962,
      "lon": 141.15205,
      "prefecture": "青森県",
      "city": "三戸郡田子町",
      "jcc": "2443",
      "jcg": "24043"
    },
    {
      "lat": 40.466593,
      "lon": 141.381986,
      "prefecture": "青森県",
      "city": "三戸郡南部町",
      "jcc": "2445",
      "jcg": "24045"
    },
    {
      "lat": 40.452489,
      "lon": 141.620851,
      "prefecture": "青森県",
      "city": "三戸郡階上町",
      "jcc": "2446",
      "jcg": "24046"
    },
    {
      "lat": 40.465626,
      "lon": 141.173464,
      "prefecture": "青森県",
      "city": "三戸郡新郷村",
      "jcc": "2450",
      "jcg": "24050"
    },
    {
      "lat": 39.702053,
      "lon": 141.154484,
      "prefecture": "岩手県",
      "city": "盛岡市",
      "jcc": "3201",
      "jcg": "32001"
    },
    {
      "lat": 39.64142,
      "lon": 141.95714,
      "prefecture": "岩手県",
      "city": "宮古市",
      "jcc": "3202",
      "jcg": "32002"
    },
    {
      "lat": 39.081901,
      "lon": 141.70853,
      "prefecture": "岩手県",
      "city": "大船渡市",
      "jcc": "3203",
      "jcg": "32003"
    },
    {
      "lat": 39.388578,
      "lon": 141.116645,
      "prefecture": "岩手県",
      "city": "花巻市",
      "jcc": "3205",
      "jcg": "32005"
    },
    {
      "lat": 39.286765,
      "lon": 141.113191,
      "prefecture": "岩手県",
      "city": "北上市",
      "jcc": "3206",
      "jcg": "32006"
    },
    {
      "lat": 40.190524,
      "lon": 141.775583,
      "prefecture": "岩手県",
      "city": "久慈市",
      "jcc": "3207",
      "jcg": "32007"
    },
    {
      "lat": 39.327838,
      "lon": 141.533303,
      "prefecture": "岩手県",
      "city": "遠野市",
      "jcc": "3208",
      "jcg": "32008"
    },
    {
      "lat": 38.934682,
      "lon": 141.1268,
      "prefecture": "岩手県",
      "city": "一関市",
      "jcc": "3209",
      "jcg": "32009"
    },
    {
      "lat": 39.027661,
      "lon": 141.625495,
      "prefecture": "岩手県",
      "city": "陸前高田市",
      "jcc": "3210",
      "jcg": "32010"
    },
    {
      "lat": 39.275818,
      "lon": 141.885677,
      "prefecture": "岩手県",
      "city": "釜石市",
      "jcc": "3211",
      "jcg": "32011"
    },
    {
      "lat": 40.271213,
      "lon": 141.304817,
      "prefecture": "岩手県",
      "city": "二戸市",
      "jcc": "3213",
      "jcg": "32013"
    },
    {
      "lat": 39.956477,
      "lon": 141.071292,
      "prefecture": "岩手県",
      "city": "八幡平市",
      "jcc": "3214",
      "jcg": "32014"
    },
    {
      "lat": 39.144529,
      "lon": 141.139141,
      "prefecture": "岩手県",
      "city": "奥州市",
      "jcc": "3215",
      "jcg": "32015"
    },
    {
      "lat": 39.734684,
      "lon": 141.077095,
      "prefecture": "岩手県",
      "city": "滝沢市",
      "jcc": "3216",
      "jcg": "32016"
    },
    {
      "lat": 39.696288,
      "lon": 140.975776,
      "prefecture": "岩手県",
      "city": "岩手郡雫石町",
      "jcc": "3301",
      "jcg": "33001"
    },
    {
      "lat": 40.039896,
      "lon": 141.436465,
      "prefecture": "岩手県",
      "city": "岩手郡葛巻町",
      "jcc": "3302",
      "jcg": "33002"
    },
    {
      "lat": 39.97259,
      "lon": 141.212516,
      "prefecture": "岩手県",
      "city": "岩手郡岩手町",
      "jcc": "3303",
      "jcg": "33003"
    },
    {
      "lat": 39.554568,
      "lon": 141.155659,
      "prefecture": "岩手県",
      "city": "紫波郡紫波町",
      "jcc": "3321",
      "jcg": "33021"
    },
    {
      "lat": 39.605981,
      "lon": 141.142889,
      "prefecture": "岩手県",
      "city": "紫波郡矢巾町",
      "jcc": "3322",
      "jcg": "33022"
    },
    {
      "lat": 39.434621,
      "lon": 140.750124,
      "prefecture": "岩手県",
      "city": "和賀郡西和賀町",
      "jcc": "3366",
      "jcg": "33066"
    },
    {
      "lat": 39.195742,
      "lon": 141.116324,
      "prefecture": "岩手県",
      "city": "胆沢郡金ケ崎町",
      "jcc": "3381",
      "jcg": "33081"
    },
    {
      "lat": 38.986662,
      "lon": 141.113822,
      "prefecture": "岩手県",
      "city": "西磐井郡平泉町",
      "jcc": "3402",
      "jcg": "34002"
    },
    {
      "lat": 39.14223,
      "lon": 141.575047,
      "prefecture": "岩手県",
      "city": "気仙郡住田町",
      "jcc": "3441",
      "jcg": "34041"
    },
    {
      "lat": 39.358231,
      "lon": 141.899422,
      "prefecture": "岩手県",
      "city": "上閉伊郡大槌町",
      "jcc": "3461",
      "jcg": "34061"
    },
    {
      "lat": 39.467662,
      "lon": 141.94895,
      "prefecture": "岩手県",
      "city": "下閉伊郡山田町",
      "jcc": "3482",
      "jcg": "34082"
    },
    {
      "lat": 39.843042,
      "lon": 141.796303,
      "prefecture": "岩手県",
      "city": "下閉伊郡岩泉町",
      "jcc": "3483",
      "jcg": "34083"
    },
    {
      "lat": 39.93045,
      "lon": 141.888868,
      "prefecture": "岩手県",
      "city": "下閉伊郡田野畑村",
      "jcc": "3484",
      "jcg": "34084"
    },
    {
      "lat": 40.005167,
      "lon": 141.885908,
      "prefecture": "岩手県",
      "city": "下閉伊郡普代村",
      "jcc": "3485",
      "jcg": "34085"
    },
    {
      "lat": 40.326746,
      "lon": 141.460633,
      "prefecture": "岩手県",
      "city": "九戸郡軽米町",
      "jcc": "3501",
      "jcg": "35001"
    },
    {
      "lat": 40.110266,
      "lon": 141.817668,
      "prefecture": "岩手県",
      "city": "九戸郡野田村",
      "jcc": "3503",
      "jcg": "35003"
    },
    {
      "lat": 40.211392,
      "lon": 141.418985,
      "prefecture": "岩手県",
      "city": "九戸郡九戸村",
      "jcc": "3506",
      "jcg": "35006"
    },
    {
      "lat": 40.284263,
      "lon": 141.624833,
      "prefecture": "岩手県",
      "city": "九戸郡洋野町",
      "jcc": "3507",
      "jcg": "35007"
    },
    {
      "lat": 40.213011,
      "lon": 141.295475,
      "prefecture": "岩手県",
      "city": "二戸郡一戸町",
      "jcc": "3524",
      "jcg": "35024"
    },
    {
      "lat": 38.269076,
      "lon": 140.870403,
      "prefecture": "宮城県",
      "city": "仙台市青葉区",
      "jcc": "4101",
      "jcg": "41001"
    },
    {
      "lat": 38.266139,
      "lon": 140.909832,
      "prefecture": "宮城県",
      "city": "仙台市宮城野区",
      "jcc": "4102",
      "jcg": "41002"
    },
    {
      "lat": 38.244224,
      "lon": 140.900756,
      "prefecture": "宮城県",
      "city": "仙台市若林区",
      "jcc": "4103",
      "jcg": "41003"
    },
    {
      "lat": 38.224348,
      "lon": 140.877134,
      "prefecture": "宮城県",
      "city": "仙台市太白区",
      "jcc": "4104",
      "jcg": "41004"
    },
    {
      "lat": 38.326375,
      "lon": 140.881629,
      "prefecture": "宮城県",
      "city": "仙台市泉区",
      "jcc": "4105",
      "jcg": "41005"
    },
    {
      "lat": 38.43448,
      "lon": 141.302917,
      "prefecture": "宮城県",
      "city": "石巻市",
      "jcc": "4202",
      "jcg": "42002"
    },
    {
      "lat": 38.314362,
      "lon": 141.022027,
      "prefecture": "宮城県",
      "city": "塩竈市",
      "jcc": "4203",
      "jcg": "42003"
    },
    {
      "lat": 38.908078,
      "lon": 141.569992,
      "prefecture": "宮城県",
      "city": "気仙沼市",
      "jcc": "4205",
      "jcg": "42005"
    },
    {
      "lat": 38.002478,
      "lon": 140.61986,
      "prefecture": "宮城県",
      "city": "白石市",
      "jcc": "4206",
      "jcg": "42006"
    },
    {
      "lat": 38.17152,
      "lon": 140.891913,
      "prefecture": "宮城県",
      "city": "名取市",
      "jcc": "4207",
      "jcg": "42007"
    },
    {
      "lat": 37.977063,
      "lon": 140.78199,
      "prefecture": "宮城県",
      "city": "角田市",
      "jcc": "4208",
      "jcg": "42008"
    },
    {
      "lat": 38.293839,
      "lon": 141.004225,
      "prefecture": "宮城県",
      "city": "多賀城市",
      "jcc": "4209",
      "jcg": "42009"
    },
    {
      "lat": 38.104292,
      "lon": 140.870138,
      "prefecture": "宮城県",
      "city": "岩沼市",
      "jcc": "4211",
      "jcg": "42011"
    },
    {
      "lat": 38.691923,
      "lon": 141.187579,
      "prefecture": "宮城県",
      "city": "登米市",
      "jcc": "4212",
      "jcg": "42012"
    },
    {
      "lat": 38.730128,
      "lon": 141.021333,
      "prefecture": "宮城県",
      "city": "栗原市",
      "jcc": "4213",
      "jcg": "42013"
    },
    {
      "lat": 38.426168,
      "lon": 141.210242,
      "prefecture": "宮城県",
      "city": "東松島市",
      "jcc": "4214",
      "jcg": "42014"
    },
    {
      "lat": 38.577071,
      "lon": 140.95535,
      "prefecture": "宮城県",
      "city": "大崎市",
      "jcc": "4215",
      "jcg": "42015"
    },
    {
      "lat": 38.400245,
      "lon": 140.89531,
      "prefecture": "宮城県",
      "city": "富谷市",
      "jcc": "4216",
      "jcg": "42016"
    },
    {
      "lat": 38.098164,
      "lon": 140.658416,
      "prefecture": "宮城県",
      "city": "刈田郡蔵王町",
      "jcc": "4301",
      "jcg": "43001"
    },
    {
      "lat": 37.993063,
      "lon": 140.441612,
      "prefecture": "宮城県",
      "city": "刈田郡七ヶ宿町",
      "jcc": "4302",
      "jcg": "43002"
    },
    {
      "lat": 38.049493,
      "lon": 140.730721,
      "prefecture": "宮城県",
      "city": "柴田郡大河原町",
      "jcc": "4321",
      "jcg": "43021"
    },
    {
      "lat": 38.118539,
      "lon": 140.722404,
      "prefecture": "宮城県",
      "city": "柴田郡村田町",
      "jcc": "4322",
      "jcg": "43022"
    },
    {
      "lat": 38.056563,
      "lon": 140.76579,
      "prefecture": "宮城県",
      "city": "柴田郡柴田町",
      "jcc": "4323",
      "jcg": "43023"
    },
    {
      "lat": 38.177737,
      "lon": 140.643202,
      "prefecture": "宮城県",
      "city": "柴田郡川崎町",
      "jcc": "4324",
      "jcg": "43024"
    },
    {
      "lat": 37.911429,
      "lon": 140.765528,
      "prefecture": "宮城県",
      "city": "伊具郡丸森町",
      "jcc": "4341",
      "jcg": "43041"
    },
    {
      "lat": 38.03746,
      "lon": 140.852581,
      "prefecture": "宮城県",
      "city": "亘理郡亘理町",
      "jcc": "4361",
      "jcg": "43061"
    },
    {
      "lat": 37.961668,
      "lon": 140.877818,
      "prefecture": "宮城県",
      "city": "亘理郡山元町",
      "jcc": "4362",
      "jcg": "43062"
    },
    {
      "lat": 38.380128,
      "lon": 141.067244,
      "prefecture": "宮城県",
      "city": "宮城郡松島町",
      "jcc": "4401",
      "jcg": "44001"
    },
    {
      "lat": 38.304613,
      "lon": 141.059186,
      "prefecture": "宮城県",
      "city": "宮城郡七ヶ浜町",
      "jcc": "4404",
      "jcg": "44004"
    },
    {
      "lat": 38.33019,
      "lon": 140.975722,
      "prefecture": "宮城県",
      "city": "宮城郡利府町",
      "jcc": "4406",
      "jcg": "44006"
    },
    {
      "lat": 38.437329,
      "lon": 140.886306,
      "prefecture": "宮城県",
      "city": "黒川郡大和町",
      "jcc": "4421",
      "jcg": "44021"
    },
    {
      "lat": 38.42426,
      "lon": 141.004445,
      "prefecture": "宮城県",
      "city": "黒川郡大郷町",
      "jcc": "4422",
      "jcg": "44022"
    },
    {
      "lat": 38.467226,
      "lon": 140.880087,
      "prefecture": "宮城県",
      "city": "黒川郡大衡村",
      "jcc": "4424",
      "jcg": "44024"
    },
    {
      "lat": 38.54892,
      "lon": 140.849878,
      "prefecture": "宮城県",
      "city": "加美郡色麻町",
      "jcc": "4444",
      "jcg": "44044"
    },
    {
      "lat": 38.571767,
      "lon": 140.854751,
      "prefecture": "宮城県",
      "city": "加美郡加美町",
      "jcc": "4445",
      "jcg": "44045"
    },
    {
      "lat": 38.539646,
      "lon": 141.128075,
      "prefecture": "宮城県",
      "city": "遠田郡涌谷町",
      "jcc": "4501",
      "jcg": "45001"
    },
    {
      "lat": 38.544391,
      "lon": 141.056695,
      "prefecture": "宮城県",
      "city": "遠田郡美里町",
      "jcc": "4505",
      "jcg": "45005"
    },
    {
      "lat": 38.449733,
      "lon": 141.443088,
      "prefecture": "宮城県",
      "city": "牡鹿郡女川町",
      "jcc": "4581",
      "jcg": "45081"
    },
    {
      "lat": 38.679771,
      "lon": 141.460514,
      "prefecture": "宮城県",
      "city": "本吉郡南三陸町",
      "jcc": "4606",
      "jcg": "46006"
    },
    {
      "lat": 39.720008,
      "lon": 140.102564,
      "prefecture": "秋田県",
      "city": "秋田市",
      "jcc": "5201",
      "jcg": "52001"
    },
    {
      "lat": 40.212151,
      "lon": 140.026624,
      "prefecture": "秋田県",
      "city": "能代市",
      "jcc": "5202",
      "jcg": "52002"
    },
    {
      "lat": 39.313782,
      "lon": 140.566649,
      "prefecture": "秋田県",
      "city": "横手市",
      "jcc": "5203",
      "jcg": "52003"
    },
    {
      "lat": 40.271405,
      "lon": 140.564285,
      "prefecture": "秋田県",
      "city": "大館市",
      "jcc": "5204",
      "jcg": "52004"
    },
    {
      "lat": 39.886818,
      "lon": 139.847558,
      "prefecture": "秋田県",
      "city": "男鹿市",
      "jcc": "5206",
      "jcg": "52006"
    },
    {
      "lat": 39.164304,
      "lon": 140.495663,
      "prefecture": "秋田県",
      "city": "湯沢市",
      "jcc": "5207",
      "jcg": "52007"
    },
    {
      "lat": 40.215778,
      "lon": 140.788436,
      "prefecture": "秋田県",
      "city": "鹿角市",
      "jcc": "5209",
      "jcg": "52009"
    },
    {
      "lat": 39.385877,
      "lon": 140.048791,
      "prefecture": "秋田県",
      "city": "由利本荘市",
      "jcc": "5210",
      "jcg": "52010"
    },
    {
      "lat": 39.857288,
      "lon": 140.013054,
      "prefecture": "秋田県",
      "city": "潟上市",
      "jcc": "5211",
      "jcg": "52011"
    },
    {
      "lat": 39.453088,
      "lon": 140.475448,
      "prefecture": "秋田県",
      "city": "大仙市",
      "jcc": "5212",
      "jcg": "52012"
    },
    {
      "lat": 40.226054,
      "lon": 140.370742,
      "prefecture": "秋田県",
      "city": "北秋田市",
      "jcc": "5213",
      "jcg": "52013"
    },
    {
      "lat": 39.203012,
      "lon": 139.907713,
      "prefecture": "秋田県",
      "city": "にかほ市",
      "jcc": "5214",
      "jcg": "52014"
    },
    {
      "lat": 39.700069,
      "lon": 140.730588,
      "prefecture": "秋田県",
      "city": "仙北市",
      "jcc": "5215",
      "jcg": "52015"
    },
    {
      "lat": 40.333092,
      "lon": 140.736081,
      "prefecture": "秋田県",
      "city": "鹿角郡小坂町",
      "jcc": "5303",
      "jcg": "53003"
    },
    {
      "lat": 40.063266,
      "lon": 140.295767,
      "prefecture": "秋田県",
      "city": "北秋田郡上小阿仁村",
      "jcc": "5327",
      "jcg": "53027"
    },
    {
      "lat": 40.27836,
      "lon": 140.261704,
      "prefecture": "秋田県",
      "city": "山本郡藤里町",
      "jcc": "5346",
      "jcg": "53046"
    },
    {
      "lat": 40.101626,
      "lon": 140.004748,
      "prefecture": "秋田県",
      "city": "山本郡三種町",
      "jcc": "5348",
      "jcg": "53048"
    },
    {
      "lat": 40.318724,
      "lon": 140.038648,
      "prefecture": "秋田県",
      "city": "山本郡八峰町",
      "jcc": "5349",
      "jcg": "53049"
    },
    {
      "lat": 39.943892,
      "lon": 140.111306,
      "prefecture": "秋田県",
      "city": "南秋田郡五城目町",
      "jcc": "5361",
      "jcg": "53061"
    },
    {
      "lat": 39.949382,
      "lon": 140.073318,
      "prefecture": "秋田県",
      "city": "南秋田郡八郎潟町",
      "jcc": "5363",
      "jcg": "53063"
    },
    {
      "lat": 39.914169,
      "lon": 140.081294,
      "prefecture": "秋田県",
      "city": "南秋田郡井川町",
      "jcc": "5366",
      "jcg": "53066"
    },
    {
      "lat": 40.017792,
      "lon": 139.960067,
      "prefecture": "秋田県",
      "city": "南秋田郡大潟村",
      "jcc": "5368",
      "jcg": "53068"
    },
    {
      "lat": 39.461905,
      "lon": 140.581299,
      "prefecture": "秋田県",
      "city": "仙北郡美郷町",
      "jcc": "5434",
      "jcg": "54034"
    },
    {
      "lat": 39.199323,
      "lon": 140.412923,
      "prefecture": "秋田県",
      "city": "雄勝郡羽後町",
      "jcc": "5463",
      "jcg": "54063"
    },
    {
      "lat": 39.179183,
      "lon": 140.64889,
      "prefecture": "秋田県",
      "city": "雄勝郡東成瀬村",
      "jcc": "5464",
      "jcg": "54064"
    },
    {
      "lat": 38.255439,
      "lon": 140.339602,
      "prefecture": "山形県",
      "city": "山形市",
      "jcc": "6201",
      "jcg": "62001"
    },
    {
      "lat": 37.92224,
      "lon": 140.116781,
      "prefecture": "山形県",
      "city": "米沢市",
      "jcc": "6202",
      "jcg": "62002"
    },
    {
      "lat": 38.727197,
      "lon": 139.826731,
      "prefecture": "山形県",
      "city": "鶴岡市",
      "jcc": "6203",
      "jcg": "62003"
    },
    {
      "lat": 38.914433,
      "lon": 139.836515,
      "prefecture": "山形県",
      "city": "酒田市",
      "jcc": "6204",
      "jcg": "62004"
    },
    {
      "lat": 38.765015,
      "lon": 140.301608,
      "prefecture": "山形県",
      "city": "新庄市",
      "jcc": "6205",
      "jcg": "62005"
    },
    {
      "lat": 38.380964,
      "lon": 140.275967,
      "prefecture": "山形県",
      "city": "寒河江市",
      "jcc": "6206",
      "jcg": "62006"
    },
    {
      "lat": 38.149562,
      "lon": 140.267827,
      "prefecture": "山形県",
      "city": "上山市",
      "jcc": "6207",
      "jcg": "62007"
    },
    {
      "lat": 38.483344,
      "lon": 140.380372,
      "prefecture": "山形県",
      "city": "村山市",
      "jcc": "6208",
      "jcg": "62008"
    },
    {
      "lat": 38.107494,
      "lon": 140.040524,
      "prefecture": "山形県",
      "city": "長井市",
      "jcc": "6209",
      "jcg": "62009"
    },
    {
      "lat": 38.362265,
      "lon": 140.377886,
      "prefecture": "山形県",
      "city": "天童市",
      "jcc": "6210",
      "jcg": "62010"
    },
    {
      "lat": 38.431354,
      "lon": 140.39109,
      "prefecture": "山形県",
      "city": "東根市",
      "jcc": "6211",
      "jcg": "62011"
    },
    {
      "lat": 38.600622,
      "lon": 140.405691,
      "prefecture": "山形県",
      "city": "尾花沢市",
      "jcc": "6212",
      "jcg": "62012"
    },
    {
      "lat": 38.055141,
      "lon": 140.148375,
      "prefecture": "山形県",
      "city": "南陽市",
      "jcc": "6213",
      "jcg": "62013"
    },
    {
      "lat": 38.289114,
      "lon": 140.262178,
      "prefecture": "山形県",
      "city": "東村山郡山辺町",
      "jcc": "6301",
      "jcg": "63001"
    },
    {
      "lat": 38.333114,
      "lon": 140.283034,
      "prefecture": "山形県",
      "city": "東村山郡中山町",
      "jcc": "6302",
      "jcg": "63002"
    },
    {
      "lat": 38.426271,
      "lon": 140.314284,
      "prefecture": "山形県",
      "city": "西村山郡河北町",
      "jcc": "6321",
      "jcg": "63021"
    },
    {
      "lat": 38.426499,
      "lon": 140.147347,
      "prefecture": "山形県",
      "city": "西村山郡西川町",
      "jcc": "6322",
      "jcg": "63022"
    },
    {
      "lat": 38.299248,
      "lon": 140.145926,
      "prefecture": "山形県",
      "city": "西村山郡朝日町",
      "jcc": "6323",
      "jcg": "63023"
    },
    {
      "lat": 38.380648,
      "lon": 140.207013,
      "prefecture": "山形県",
      "city": "西村山郡大江町",
      "jcc": "6324",
      "jcg": "63024"
    },
    {
      "lat": 38.593863,
      "lon": 140.37268,
      "prefecture": "山形県",
      "city": "北村山郡大石田町",
      "jcc": "6341",
      "jcg": "63041"
    },
    {
      "lat": 38.883357,
      "lon": 140.339456,
      "prefecture": "山形県",
      "city": "最上郡金山町",
      "jcc": "6361",
      "jcg": "63061"
    },
    {
      "lat": 38.758387,
      "lon": 140.519354,
      "prefecture": "山形県",
      "city": "最上郡最上町",
      "jcc": "6362",
      "jcg": "63062"
    },
    {
      "lat": 38.691444,
      "lon": 140.319776,
      "prefecture": "山形県",
      "city": "最上郡舟形町",
      "jcc": "6363",
      "jcg": "63063"
    },
    {
      "lat": 38.857859,
      "lon": 140.252301,
      "prefecture": "山形県",
      "city": "最上郡真室川町",
      "jcc": "6364",
      "jcg": "63064"
    },
    {
      "lat": 38.704182,
      "lon": 140.230374,
      "prefecture": "山形県",
      "city": "最上郡大蔵村",
      "jcc": "6365",
      "jcg": "63065"
    },
    {
      "lat": 38.796457,
      "lon": 140.222052,
      "prefecture": "山形県",
      "city": "最上郡鮭川村",
      "jcc": "6366",
      "jcg": "63066"
    },
    {
      "lat": 38.737473,
      "lon": 140.143804,
      "prefecture": "山形県",
      "city": "最上郡戸沢村",
      "jcc": "6367",
      "jcg": "63067"
    },
    {
      "lat": 38.002736,
      "lon": 140.18916,
      "prefecture": "山形県",
      "city": "東置賜郡高畠町",
      "jcc": "6381",
      "jcg": "63081"
    },
    {
      "lat": 38.004479,
      "lon": 140.04579,
      "prefecture": "山形県",
      "city": "東置賜郡川西町",
      "jcc": "6382",
      "jcg": "63082"
    },
    {
      "lat": 38.061627,
      "lon": 139.743364,
      "prefecture": "山形県",
      "city": "西置賜郡小国町",
      "jcc": "6401",
      "jcg": "64001"
    },
    {
      "lat": 38.183095,
      "lon": 140.098438,
      "prefecture": "山形県",
      "city": "西置賜郡白鷹町",
      "jcc": "6402",
      "jcg": "64002"
    },
    {
      "lat": 38.045827,
      "lon": 139.987529,
      "prefecture": "山形県",
      "city": "西置賜郡飯豊町",
      "jcc": "6403",
      "jcg": "64003"
    },
    {
      "lat": 38.794487,
      "lon": 139.849696,
      "prefecture": "山形県",
      "city": "東田川郡三川町",
      "jcc": "6426",
      "jcg": "64026"
    },
    {
      "lat": 38.849915,
      "lon": 139.904745,
      "prefecture": "山形県",
      "city": "東田川郡庄内町",
      "jcc": "6428",
      "jcg": "64028"
    },
    {
      "lat": 39.014616,
      "lon": 139.907352,
      "prefecture": "山形県",
      "city": "飽海郡遊佐町",
      "jcc": "6461",
      "jcg": "64061"
    },
    {
      "lat": 37.760834,
      "lon": 140.474728,
      "prefecture": "福島県",
      "city": "福島市",
      "jcc": "7201",
      "jcg": "72001"
    },
    {
      "lat": 37.494761,
      "lon": 139.92981,
      "prefecture": "福島県",
      "city": "会津若松市",
      "jcc": "7202",
      "jcg": "72002"
    },
    {
      "lat": 37.400529,
      "lon": 140.359742,
      "prefecture": "福島県",
      "city": "郡山市",
      "jcc": "7203",
      "jcg": "72003"
    },
    {
      "lat": 37.05042,
      "lon": 140.887682,
      "prefecture": "福島県",
      "city": "いわき市",
      "jcc": "7204",
      "jcg": "72004"
    },
    {
      "lat": 37.126362,
      "lon": 140.210943,
      "prefecture": "福島県",
      "city": "白河市",
      "jcc": "7205",
      "jcg": "72005"
    },
    {
      "lat": 37.292893,
      "lon": 140.356975,
      "prefecture": "福島県",
      "city": "須賀川市",
      "jcc": "7207",
      "jcg": "72007"
    },
    {
      "lat": 37.651355,
      "lon": 139.874609,
      "prefecture": "福島県",
      "city": "喜多方市",
      "jcc": "7208",
      "jcg": "72008"
    },
    {
      "lat": 37.796624,
      "lon": 140.91947,
      "prefecture": "福島県",
      "city": "相馬市",
      "jcc": "7209",
      "jcg": "72009"
    },
    {
      "lat": 37.584858,
      "lon": 140.431129,
      "prefecture": "福島県",
      "city": "二本松市",
      "jcc": "7210",
      "jcg": "72010"
    },
    {
      "lat": 37.44055,
      "lon": 140.576422,
      "prefecture": "福島県",
      "city": "田村市",
      "jcc": "7211",
      "jcg": "72011"
    },
    {
      "lat": 37.642161,
      "lon": 140.957276,
      "prefecture": "福島県",
      "city": "南相馬市",
      "jcc": "7212",
      "jcg": "72012"
    },
    {
      "lat": 37.819138,
      "lon": 140.562908,
      "prefecture": "福島県",
      "city": "伊達市",
      "jcc": "7213",
      "jcg": "72013"
    },
    {
      "lat": 37.513131,
      "lon": 140.39389,
      "prefecture": "福島県",
      "city": "本宮市",
      "jcc": "7214",
      "jcg": "72014"
    },
    {
      "lat": 37.849537,
      "lon": 140.516352,
      "prefecture": "福島県",
      "city": "伊達郡桑折町",
      "jcc": "7301",
      "jcg": "73001"
    },
    {
      "lat": 37.837,
      "lon": 140.549185,
      "prefecture": "福島県",
      "city": "伊達郡国見町",
      "jcc": "7303",
      "jcg": "73003"
    },
    {
      "lat": 37.663922,
      "lon": 140.597333,
      "prefecture": "福島県",
      "city": "伊達郡川俣町",
      "jcc": "7308",
      "jcg": "73008"
    },
    {
      "lat": 37.534392,
      "lon": 140.371189,
      "prefecture": "福島県",
      "city": "安達郡大玉村",
      "jcc": "7322",
      "jcg": "73022"
    },
    {
      "lat": 37.25283,
      "lon": 140.343408,
      "prefecture": "福島県",
      "city": "岩瀬郡鏡石町",
      "jcc": "7342",
      "jcg": "73042"
    },
    {
      "lat": 37.255606,
      "lon": 140.247074,
      "prefecture": "福島県",
      "city": "岩瀬郡天栄村",
      "jcc": "7344",
      "jcg": "73044"
    },
    {
      "lat": 37.25558,
      "lon": 139.872128,
      "prefecture": "福島県",
      "city": "南会津郡下郷町",
      "jcc": "7362",
      "jcg": "73062"
    },
    {
      "lat": 37.024146,
      "lon": 139.388945,
      "prefecture": "福島県",
      "city": "南会津郡檜枝岐村",
      "jcc": "7364",
      "jcg": "73064"
    },
    {
      "lat": 37.348801,
      "lon": 139.316091,
      "prefecture": "福島県",
      "city": "南会津郡只見町",
      "jcc": "7367",
      "jcg": "73067"
    },
    {
      "lat": 37.200395,
      "lon": 139.773199,
      "prefecture": "福島県",
      "city": "南会津郡南会津町",
      "jcc": "7368",
      "jcg": "73068"
    },
    {
      "lat": 37.655715,
      "lon": 139.937374,
      "prefecture": "福島県",
      "city": "耶麻郡北塩原村",
      "jcc": "7402",
      "jcg": "74002"
    },
    {
      "lat": 37.588798,
      "lon": 139.647495,
      "prefecture": "福島県",
      "city": "耶麻郡西会津町",
      "jcc": "7405",
      "jcg": "74005"
    },
    {
      "lat": 37.562115,
      "lon": 139.98878,
      "prefecture": "福島県",
      "city": "耶麻郡磐梯町",
      "jcc": "7407",
      "jcg": "74007"
    },
    {
      "lat": 37.557768,
      "lon": 140.104761,
      "prefecture": "福島県",
      "city": "耶麻郡猪苗代町",
      "jcc": "7408",
      "jcg": "74008"
    },
    {
      "lat": 37.561481,
      "lon": 139.821643,
      "prefecture": "福島県",
      "city": "河沼郡会津坂下町",
      "jcc": "7421",
      "jcg": "74021"
    },
    {
      "lat": 37.565299,
      "lon": 139.886778,
      "prefecture": "福島県",
      "city": "河沼郡湯川村",
      "jcc": "7422",
      "jcg": "74022"
    },
    {
      "lat": 37.52616,
      "lon": 139.719542,
      "prefecture": "福島県",
      "city": "河沼郡柳津町",
      "jcc": "7423",
      "jcg": "74023"
    },
    {
      "lat": 37.470369,
      "lon": 139.644447,
      "prefecture": "福島県",
      "city": "大沼郡三島町",
      "jcc": "7444",
      "jcg": "74044"
    },
    {
      "lat": 37.453851,
      "lon": 139.524298,
      "prefecture": "福島県",
      "city": "大沼郡金山町",
      "jcc": "7445",
      "jcg": "74045"
    },
    {
      "lat": 37.335416,
      "lon": 139.61066,
      "prefecture": "福島県",
      "city": "大沼郡昭和村",
      "jcc": "7446",
      "jcg": "74046"
    },
    {
      "lat": 37.459854,
      "lon": 139.841178,
      "prefecture": "福島県",
      "city": "大沼郡会津美里町",
      "jcc": "7447",
      "jcg": "74047"
    },
    {
      "lat": 37.141696,
      "lon": 140.155364,
      "prefecture": "福島県",
      "city": "西白河郡西郷村",
      "jcc": "7461",
      "jcg": "74061"
    },
    {
      "lat": 37.157052,
      "lon": 140.295252,
      "prefecture": "福島県",
      "city": "西白河郡泉崎村",
      "jcc": "7464",
      "jcg": "74064"
    },
    {
      "lat": 37.148757,
      "lon": 140.350204,
      "prefecture": "福島県",
      "city": "西白河郡中島村",
      "jcc": "7465",
      "jcg": "74065"
    },
    {
      "lat": 37.201278,
      "lon": 140.338608,
      "prefecture": "福島県",
      "city": "西白河郡矢吹町",
      "jcc": "7466",
      "jcg": "74066"
    },
    {
      "lat": 37.029905,
      "lon": 140.379648,
      "prefecture": "福島県",
      "city": "東白川郡棚倉町",
      "jcc": "7481",
      "jcg": "74081"
    },
    {
      "lat": 36.871403,
      "lon": 140.424783,
      "prefecture": "福島県",
      "city": "東白川郡矢祭町",
      "jcc": "7482",
      "jcg": "74082"
    },
    {
      "lat": 36.957437,
      "lon": 140.409573,
      "prefecture": "福島県",
      "city": "東白川郡塙町",
      "jcc": "7483",
      "jcg": "74083"
    },
    {
      "lat": 37.042327,
      "lon": 140.509669,
      "prefecture": "福島県",
      "city": "東白川郡鮫川村",
      "jcc": "7484",
      "jcg": "74084"
    },
    {
      "lat": 37.14433,
      "lon": 140.452351,
      "prefecture": "福島県",
      "city": "石川郡石川町",
      "jcc": "7501",
      "jcg": "75001"
    },
    {
      "lat": 37.210706,
      "lon": 140.409038,
      "prefecture": "福島県",
      "city": "石川郡玉川村",
      "jcc": "7502",
      "jcg": "75002"
    },
    {
      "lat": 37.221786,
      "lon": 140.575876,
      "prefecture": "福島県",
      "city": "石川郡平田村",
      "jcc": "7503",
      "jcg": "75003"
    },
    {
      "lat": 37.080995,
      "lon": 140.412809,
      "prefecture": "福島県",
      "city": "石川郡浅川町",
      "jcc": "7504",
      "jcg": "75004"
    },
    {
      "lat": 37.089093,
      "lon": 140.555649,
      "prefecture": "福島県",
      "city": "石川郡古殿町",
      "jcc": "7505",
      "jcg": "75005"
    },
    {
      "lat": 37.441048,
      "lon": 140.492569,
      "prefecture": "福島県",
      "city": "田村郡三春町",
      "jcc": "7521",
      "jcg": "75021"
    },
    {
      "lat": 37.286823,
      "lon": 140.626277,
      "prefecture": "福島県",
      "city": "田村郡小野町",
      "jcc": "7522",
      "jcg": "75022"
    },
    {
      "lat": 37.214559,
      "lon": 140.994458,
      "prefecture": "福島県",
      "city": "双葉郡広野町",
      "jcc": "7541",
      "jcg": "75041"
    },
    {
      "lat": 37.2825,
      "lon": 140.993611,
      "prefecture": "福島県",
      "city": "双葉郡楢葉町",
      "jcc": "7542",
      "jcg": "75042"
    },
    {
      "lat": 37.333056,
      "lon": 141.016944,
      "prefecture": "福島県",
      "city": "双葉郡富岡町",
      "jcc": "7543",
      "jcg": "75043"
    },
    {
      "lat": 37.337691,
      "lon": 140.809345,
      "prefecture": "福島県",
      "city": "双葉郡川内村",
      "jcc": "7544",
      "jcg": "75044"
    },
    {
      "lat": 37.404444,
      "lon": 140.983611,
      "prefecture": "福島県",
      "city": "双葉郡大熊町",
      "jcc": "7545",
      "jcg": "75045"
    },
    {
      "lat": 37.449167,
      "lon": 141.0125,
      "prefecture": "福島県",
      "city": "双葉郡双葉町",
      "jcc": "7546",
      "jcg": "75046"
    },
    {
      "lat": 37.483333,
      "lon": 141,
      "prefecture": "福島県",
      "city": "双葉郡浪江町",
      "jcc": "7547",
      "jcg": "75047"
    },
    {
      "lat": 37.503611,
      "lon": 140.764444,
      "prefecture": "福島県",
      "city": "双葉郡葛尾村",
      "jcc": "7548",
      "jcg": "75048"
    },
    {
      "lat": 37.876357,
      "lon": 140.919599,
      "prefecture": "福島県",
      "city": "相馬郡新地町",
      "jcc": "7561",
      "jcg": "75061"
    },
    {
      "lat": 37.67919,
      "lon": 140.735247,
      "prefecture": "福島県",
      "city": "相馬郡飯舘村",
      "jcc": "7564",
      "jcg": "75064"
    },
    {
      "lat": 36.366503,
      "lon": 140.470996,
      "prefecture": "茨城県",
      "city": "水戸市",
      "jcc": "8201",
      "jcg": "82001"
    },
    {
      "lat": 36.599154,
      "lon": 140.651469,
      "prefecture": "茨城県",
      "city": "日立市",
      "jcc": "8202",
      "jcg": "82002"
    },
    {
      "lat": 36.078297,
      "lon": 140.204333,
      "prefecture": "茨城県",
      "city": "土浦市",
      "jcc": "8203",
      "jcg": "82003"
    },
    {
      "lat": 36.184645,
      "lon": 139.702525,
      "prefecture": "茨城県",
      "city": "古河市",
      "jcc": "8204",
      "jcg": "82004"
    },
    {
      "lat": 36.190048,
      "lon": 140.287556,
      "prefecture": "茨城県",
      "city": "石岡市",
      "jcc": "8205",
      "jcg": "82005"
    },
    {
      "lat": 36.305417,
      "lon": 139.876641,
      "prefecture": "茨城県",
      "city": "結城市",
      "jcc": "8207",
      "jcg": "82007"
    },
    {
      "lat": 35.911594,
      "lon": 140.182264,
      "prefecture": "茨城県",
      "city": "龍ケ崎市",
      "jcc": "8208",
      "jcg": "82008"
    },
    {
      "lat": 36.184514,
      "lon": 139.967374,
      "prefecture": "茨城県",
      "city": "下妻市",
      "jcc": "8210",
      "jcg": "82010"
    },
    {
      "lat": 36.023494,
      "lon": 139.993617,
      "prefecture": "茨城県",
      "city": "常総市",
      "jcc": "8211",
      "jcg": "82011"
    },
    {
      "lat": 36.538275,
      "lon": 140.53095,
      "prefecture": "茨城県",
      "city": "常陸太田市",
      "jcc": "8212",
      "jcg": "82012"
    },
    {
      "lat": 36.719147,
      "lon": 140.716688,
      "prefecture": "茨城県",
      "city": "高萩市",
      "jcc": "8214",
      "jcg": "82014"
    },
    {
      "lat": 36.801911,
      "lon": 140.750979,
      "prefecture": "茨城県",
      "city": "北茨城市",
      "jcc": "8215",
      "jcg": "82015"
    },
    {
      "lat": 36.3453,
      "lon": 140.304354,
      "prefecture": "茨城県",
      "city": "笠間市",
      "jcc": "8216",
      "jcg": "82016"
    },
    {
      "lat": 35.911442,
      "lon": 140.050468,
      "prefecture": "茨城県",
      "city": "取手市",
      "jcc": "8217",
      "jcg": "82017"
    },
    {
      "lat": 35.979375,
      "lon": 140.149524,
      "prefecture": "茨城県",
      "city": "牛久市",
      "jcc": "8219",
      "jcg": "82019"
    },
    {
      "lat": 36.083486,
      "lon": 140.076642,
      "prefecture": "茨城県",
      "city": "つくば市",
      "jcc": "8220",
      "jcg": "82020"
    },
    {
      "lat": 36.396615,
      "lon": 140.534676,
      "prefecture": "茨城県",
      "city": "ひたちなか市",
      "jcc": "8221",
      "jcg": "82021"
    },
    {
      "lat": 35.965756,
      "lon": 140.644813,
      "prefecture": "茨城県",
      "city": "鹿嶋市",
      "jcc": "8222",
      "jcg": "82022"
    },
    {
      "lat": 35.947123,
      "lon": 140.555372,
      "prefecture": "茨城県",
      "city": "潮来市",
      "jcc": "8223",
      "jcg": "82023"
    },
    {
      "lat": 35.951421,
      "lon": 139.975391,
      "prefecture": "茨城県",
      "city": "守谷市",
      "jcc": "8224",
      "jcg": "82024"
    },
    {
      "lat": 36.542577,
      "lon": 140.41089,
      "prefecture": "茨城県",
      "city": "常陸大宮市",
      "jcc": "8225",
      "jcg": "82025"
    },
    {
      "lat": 36.457469,
      "lon": 140.486854,
      "prefecture": "茨城県",
      "city": "那珂市",
      "jcc": "8226",
      "jcg": "82026"
    },
    {
      "lat": 36.307053,
      "lon": 139.983123,
      "prefecture": "茨城県",
      "city": "筑西市",
      "jcc": "8227",
      "jcg": "82027"
    },
    {
      "lat": 36.048738,
      "lon": 139.88832,
      "prefecture": "茨城県",
      "city": "坂東市",
      "jcc": "8228",
      "jcg": "82028"
    },
    {
      "lat": 35.956492,
      "lon": 140.323908,
      "prefecture": "茨城県",
      "city": "稲敷市",
      "jcc": "8229",
      "jcg": "82029"
    },
    {
      "lat": 36.094529,
      "lon": 140.330691,
      "prefecture": "茨城県",
      "city": "かすみがうら市",
      "jcc": "8230",
      "jcg": "82030"
    },
    {
      "lat": 36.32725,
      "lon": 140.090433,
      "prefecture": "茨城県",
      "city": "桜川市",
      "jcc": "8231",
      "jcg": "82031"
    },
    {
      "lat": 35.889966,
      "lon": 140.664513,
      "prefecture": "茨城県",
      "city": "神栖市",
      "jcc": "8232",
      "jcg": "82032"
    },
    {
      "lat": 35.990416,
      "lon": 140.489025,
      "prefecture": "茨城県",
      "city": "行方市",
      "jcc": "8233",
      "jcg": "82033"
    },
    {
      "lat": 36.15864,
      "lon": 140.516461,
      "prefecture": "茨城県",
      "city": "鉾田市",
      "jcc": "8234",
      "jcg": "82034"
    },
    {
      "lat": 35.963024,
      "lon": 140.03702,
      "prefecture": "茨城県",
      "city": "つくばみらい市",
      "jcc": "8235",
      "jcg": "82035"
    },
    {
      "lat": 36.239345,
      "lon": 140.352576,
      "prefecture": "茨城県",
      "city": "小美玉市",
      "jcc": "8236",
      "jcg": "82036"
    },
    {
      "lat": 36.286921,
      "lon": 140.424514,
      "prefecture": "茨城県",
      "city": "東茨城郡茨城町",
      "jcc": "8302",
      "jcg": "83002"
    },
    {
      "lat": 36.313443,
      "lon": 140.574974,
      "prefecture": "茨城県",
      "city": "東茨城郡大洗町",
      "jcc": "8309",
      "jcg": "83009"
    },
    {
      "lat": 36.479363,
      "lon": 140.376166,
      "prefecture": "茨城県",
      "city": "東茨城郡城里町",
      "jcc": "8310",
      "jcg": "83010"
    },
    {
      "lat": 36.47288,
      "lon": 140.566299,
      "prefecture": "茨城県",
      "city": "那珂郡東海村",
      "jcc": "8341",
      "jcg": "83041"
    },
    {
      "lat": 36.768096,
      "lon": 140.355266,
      "prefecture": "茨城県",
      "city": "久慈郡大子町",
      "jcc": "8364",
      "jcg": "83064"
    },
    {
      "lat": 36.004562,
      "lon": 140.301914,
      "prefecture": "茨城県",
      "city": "稲敷郡美浦村",
      "jcc": "8442",
      "jcg": "84042"
    },
    {
      "lat": 36.030795,
      "lon": 140.214786,
      "prefecture": "茨城県",
      "city": "稲敷郡阿見町",
      "jcc": "8443",
      "jcg": "84043"
    },
    {
      "lat": 35.884794,
      "lon": 140.244465,
      "prefecture": "茨城県",
      "city": "稲敷郡河内町",
      "jcc": "8447",
      "jcg": "84047"
    },
    {
      "lat": 36.181635,
      "lon": 139.891129,
      "prefecture": "茨城県",
      "city": "結城郡八千代町",
      "jcc": "8521",
      "jcg": "85021"
    },
    {
      "lat": 36.114113,
      "lon": 139.745832,
      "prefecture": "茨城県",
      "city": "猿島郡五霞町",
      "jcc": "8542",
      "jcg": "85042"
    },
    {
      "lat": 36.108426,
      "lon": 139.794961,
      "prefecture": "茨城県",
      "city": "猿島郡境町",
      "jcc": "8546",
      "jcg": "85046"
    },
    {
      "lat": 35.857747,
      "lon": 140.139148,
      "prefecture": "茨城県",
      "city": "北相馬郡利根町",
      "jcc": "8564",
      "jcg": "85064"
    },
    {
      "lat": 36.555112,
      "lon": 139.882807,
      "prefecture": "栃木県",
      "city": "宇都宮市",
      "jcc": "9201",
      "jcg": "92001"
    },
    {
      "lat": 36.340151,
      "lon": 139.449698,
      "prefecture": "栃木県",
      "city": "足利市",
      "jcc": "9202",
      "jcg": "92002"
    },
    {
      "lat": 36.38238,
      "lon": 139.734081,
      "prefecture": "栃木県",
      "city": "栃木市",
      "jcc": "9203",
      "jcg": "92003"
    },
    {
      "lat": 36.308578,
      "lon": 139.593118,
      "prefecture": "栃木県",
      "city": "佐野市",
      "jcc": "9204",
      "jcg": "92004"
    },
    {
      "lat": 36.567111,
      "lon": 139.745013,
      "prefecture": "栃木県",
      "city": "鹿沼市",
      "jcc": "9205",
      "jcg": "92005"
    },
    {
      "lat": 36.719903,
      "lon": 139.698216,
      "prefecture": "栃木県",
      "city": "日光市",
      "jcc": "9206",
      "jcg": "92006"
    },
    {
      "lat": 36.314671,
      "lon": 139.800131,
      "prefecture": "栃木県",
      "city": "小山市",
      "jcc": "9208",
      "jcg": "92008"
    },
    {
      "lat": 36.440419,
      "lon": 140.013442,
      "prefecture": "栃木県",
      "city": "真岡市",
      "jcc": "9209",
      "jcg": "92009"
    },
    {
      "lat": 36.871484,
      "lon": 140.017419,
      "prefecture": "栃木県",
      "city": "大田原市",
      "jcc": "9210",
      "jcg": "92010"
    },
    {
      "lat": 36.806686,
      "lon": 139.924054,
      "prefecture": "栃木県",
      "city": "矢板市",
      "jcc": "9211",
      "jcg": "92011"
    },
    {
      "lat": 36.961698,
      "lon": 140.046066,
      "prefecture": "栃木県",
      "city": "那須塩原市",
      "jcc": "9213",
      "jcg": "92013"
    },
    {
      "lat": 36.685301,
      "lon": 139.966452,
      "prefecture": "栃木県",
      "city": "さくら市",
      "jcc": "9214",
      "jcg": "92014"
    },
    {
      "lat": 36.656893,
      "lon": 140.151426,
      "prefecture": "栃木県",
      "city": "那須烏山市",
      "jcc": "9215",
      "jcg": "92015"
    },
    {
      "lat": 36.387195,
      "lon": 139.841967,
      "prefecture": "栃木県",
      "city": "下野市",
      "jcc": "9216",
      "jcg": "92016"
    },
    {
      "lat": 36.439296,
      "lon": 139.909884,
      "prefecture": "栃木県",
      "city": "河内郡上三川町",
      "jcc": "9301",
      "jcg": "93001"
    },
    {
      "lat": 36.467353,
      "lon": 140.093378,
      "prefecture": "栃木県",
      "city": "芳賀郡益子町",
      "jcc": "9342",
      "jcg": "93042"
    },
    {
      "lat": 36.53212,
      "lon": 140.187565,
      "prefecture": "栃木県",
      "city": "芳賀郡茂木町",
      "jcc": "9343",
      "jcg": "93043"
    },
    {
      "lat": 36.543308,
      "lon": 140.102046,
      "prefecture": "栃木県",
      "city": "芳賀郡市貝町",
      "jcc": "9344",
      "jcg": "93044"
    },
    {
      "lat": 36.548323,
      "lon": 140.058196,
      "prefecture": "栃木県",
      "city": "芳賀郡芳賀町",
      "jcc": "9345",
      "jcg": "93045"
    },
    {
      "lat": 36.427058,
      "lon": 139.803932,
      "prefecture": "栃木県",
      "city": "下都賀郡壬生町",
      "jcc": "9361",
      "jcg": "93061"
    },
    {
      "lat": 36.233251,
      "lon": 139.74075,
      "prefecture": "栃木県",
      "city": "下都賀郡野木町",
      "jcc": "9364",
      "jcg": "93064"
    },
    {
      "lat": 36.777613,
      "lon": 139.85057,
      "prefecture": "栃木県",
      "city": "塩谷郡塩谷町",
      "jcc": "9384",
      "jcg": "93084"
    },
    {
      "lat": 36.630973,
      "lon": 139.986684,
      "prefecture": "栃木県",
      "city": "塩谷郡高根沢町",
      "jcc": "9386",
      "jcg": "93086"
    },
    {
      "lat": 37.019731,
      "lon": 140.121017,
      "prefecture": "栃木県",
      "city": "那須郡那須町",
      "jcc": "9407",
      "jcg": "94007"
    },
    {
      "lat": 36.761661,
      "lon": 140.130072,
      "prefecture": "栃木県",
      "city": "那須郡那珂川町",
      "jcc": "9411",
      "jcg": "94011"
    },
    {
      "lat": 36.389482,
      "lon": 139.063428,
      "prefecture": "群馬県",
      "city": "前橋市",
      "jcc": "1020",
      "jcg": "10201"
    },
    {
      "lat": 36.321909,
      "lon": 139.003294,
      "prefecture": "群馬県",
      "city": "高崎市",
      "jcc": "1020",
      "jcg": "10202"
    },
    {
      "lat": 36.405491,
      "lon": 139.330688,
      "prefecture": "群馬県",
      "city": "桐生市",
      "jcc": "1020",
      "jcg": "10203"
    },
    {
      "lat": 36.311364,
      "lon": 139.19677,
      "prefecture": "群馬県",
      "city": "伊勢崎市",
      "jcc": "1020",
      "jcg": "10204"
    },
    {
      "lat": 36.291122,
      "lon": 139.375471,
      "prefecture": "群馬県",
      "city": "太田市",
      "jcc": "1020",
      "jcg": "10205"
    },
    {
      "lat": 36.646077,
      "lon": 139.044161,
      "prefecture": "群馬県",
      "city": "沼田市",
      "jcc": "1020",
      "jcg": "10206"
    },
    {
      "lat": 36.244849,
      "lon": 139.541968,
      "prefecture": "群馬県",
      "city": "館林市",
      "jcc": "1020",
      "jcg": "10207"
    },
    {
      "lat": 36.489471,
      "lon": 139.000448,
      "prefecture": "群馬県",
      "city": "渋川市",
      "jcc": "1020",
      "jcg": "10208"
    },
    {
      "lat": 36.258477,
      "lon": 139.074439,
      "prefecture": "群馬県",
      "city": "藤岡市",
      "jcc": "1020",
      "jcg": "10209"
    },
    {
      "lat": 36.259896,
      "lon": 138.889932,
      "prefecture": "群馬県",
      "city": "富岡市",
      "jcc": "1021",
      "jcg": "10210"
    },
    {
      "lat": 36.326368,
      "lon": 138.887324,
      "prefecture": "群馬県",
      "city": "安中市",
      "jcc": "1021",
      "jcg": "10211"
    },
    {
      "lat": 36.394838,
      "lon": 139.281135,
      "prefecture": "群馬県",
      "city": "みどり市",
      "jcc": "1021",
      "jcg": "10212"
    },
    {
      "lat": 36.438642,
      "lon": 138.967118,
      "prefecture": "群馬県",
      "city": "北群馬郡榛東村",
      "jcc": "1034",
      "jcg": "10344"
    },
    {
      "lat": 36.447501,
      "lon": 139.009766,
      "prefecture": "群馬県",
      "city": "北群馬郡吉岡町",
      "jcc": "1034",
      "jcg": "10345"
    },
    {
      "lat": 36.083143,
      "lon": 138.777376,
      "prefecture": "群馬県",
      "city": "多野郡上野村",
      "jcc": "1036",
      "jcg": "10366"
    },
    {
      "lat": 36.116056,
      "lon": 138.916955,
      "prefecture": "群馬県",
      "city": "多野郡神流町",
      "jcc": "1036",
      "jcg": "10367"
    },
    {
      "lat": 36.21239,
      "lon": 138.789094,
      "prefecture": "群馬県",
      "city": "甘楽郡下仁田町",
      "jcc": "1038",
      "jcg": "10382"
    },
    {
      "lat": 36.158548,
      "lon": 138.711406,
      "prefecture": "群馬県",
      "city": "甘楽郡南牧村",
      "jcc": "1038",
      "jcg": "10383"
    },
    {
      "lat": 36.242954,
      "lon": 138.921682,
      "prefecture": "群馬県",
      "city": "甘楽郡甘楽町",
      "jcc": "1038",
      "jcg": "10384"
    },
    {
      "lat": 36.589893,
      "lon": 138.840986,
      "prefecture": "群馬県",
      "city": "吾妻郡中之条町",
      "jcc": "1042",
      "jcg": "10421"
    },
    {
      "lat": 36.552446,
      "lon": 138.637477,
      "prefecture": "群馬県",
      "city": "吾妻郡長野原町",
      "jcc": "1042",
      "jcg": "10424"
    },
    {
      "lat": 36.516874,
      "lon": 138.530182,
      "prefecture": "群馬県",
      "city": "吾妻郡嬬恋村",
      "jcc": "1042",
      "jcg": "10425"
    },
    {
      "lat": 36.620778,
      "lon": 138.596053,
      "prefecture": "群馬県",
      "city": "吾妻郡草津町",
      "jcc": "1042",
      "jcg": "10426"
    },
    {
      "lat": 36.620887,
      "lon": 138.943449,
      "prefecture": "群馬県",
      "city": "吾妻郡高山村",
      "jcc": "1042",
      "jcg": "10428"
    },
    {
      "lat": 36.571347,
      "lon": 138.825472,
      "prefecture": "群馬県",
      "city": "吾妻郡東吾妻町",
      "jcc": "1042",
      "jcg": "10429"
    },
    {
      "lat": 36.772469,
      "lon": 139.225243,
      "prefecture": "群馬県",
      "city": "利根郡片品村",
      "jcc": "1044",
      "jcg": "10443"
    },
    {
      "lat": 36.694669,
      "lon": 139.106534,
      "prefecture": "群馬県",
      "city": "利根郡川場村",
      "jcc": "1044",
      "jcg": "10444"
    },
    {
      "lat": 36.639753,
      "lon": 139.065865,
      "prefecture": "群馬県",
      "city": "利根郡昭和村",
      "jcc": "1044",
      "jcg": "10448"
    },
    {
      "lat": 36.6787,
      "lon": 138.999064,
      "prefecture": "群馬県",
      "city": "利根郡みなかみ町",
      "jcc": "1044",
      "jcg": "10449"
    },
    {
      "lat": 36.304433,
      "lon": 139.114913,
      "prefecture": "群馬県",
      "city": "佐波郡玉村町",
      "jcc": "1046",
      "jcg": "10464"
    },
    {
      "lat": 36.222952,
      "lon": 139.610271,
      "prefecture": "群馬県",
      "city": "邑楽郡板倉町",
      "jcc": "1052",
      "jcg": "10521"
    },
    {
      "lat": 36.2113,
      "lon": 139.534244,
      "prefecture": "群馬県",
      "city": "邑楽郡明和町",
      "jcc": "1052",
      "jcg": "10522"
    },
    {
      "lat": 36.217754,
      "lon": 139.442435,
      "prefecture": "群馬県",
      "city": "邑楽郡千代田町",
      "jcc": "1052",
      "jcg": "10523"
    },
    {
      "lat": 36.247902,
      "lon": 139.40487,
      "prefecture": "群馬県",
      "city": "邑楽郡大泉町",
      "jcc": "1052",
      "jcg": "10524"
    },
    {
      "lat": 36.252394,
      "lon": 139.462286,
      "prefecture": "群馬県",
      "city": "邑楽郡邑楽町",
      "jcc": "1052",
      "jcg": "10525"
    },
    {
      "lat": 35.925302,
      "lon": 139.579472,
      "prefecture": "埼玉県",
      "city": "さいたま市西区",
      "jcc": "1110",
      "jcg": "11101"
    },
    {
      "lat": 35.931522,
      "lon": 139.620346,
      "prefecture": "埼玉県",
      "city": "さいたま市北区",
      "jcc": "1110",
      "jcg": "11102"
    },
    {
      "lat": 35.906487,
      "lon": 139.628754,
      "prefecture": "埼玉県",
      "city": "さいたま市大宮区",
      "jcc": "1110",
      "jcg": "11103"
    },
    {
      "lat": 35.935206,
      "lon": 139.654526,
      "prefecture": "埼玉県",
      "city": "さいたま市見沼区",
      "jcc": "1110",
      "jcg": "11104"
    },
    {
      "lat": 35.884096,
      "lon": 139.626102,
      "prefecture": "埼玉県",
      "city": "さいたま市中央区",
      "jcc": "1110",
      "jcg": "11105"
    },
    {
      "lat": 35.85614,
      "lon": 139.610352,
      "prefecture": "埼玉県",
      "city": "さいたま市桜区",
      "jcc": "1110",
      "jcg": "11106"
    },
    {
      "lat": 35.861651,
      "lon": 139.645435,
      "prefecture": "埼玉県",
      "city": "さいたま市浦和区",
      "jcc": "1110",
      "jcg": "11107"
    },
    {
      "lat": 35.845253,
      "lon": 139.645352,
      "prefecture": "埼玉県",
      "city": "さいたま市南区",
      "jcc": "1110",
      "jcg": "11108"
    },
    {
      "lat": 35.871087,
      "lon": 139.68397,
      "prefecture": "埼玉県",
      "city": "さいたま市緑区",
      "jcc": "1110",
      "jcg": "11109"
    },
    {
      "lat": 35.949861,
      "lon": 139.694191,
      "prefecture": "埼玉県",
      "city": "さいたま市岩槻区",
      "jcc": "1111",
      "jcg": "11110"
    },
    {
      "lat": 35.925101,
      "lon": 139.485793,
      "prefecture": "埼玉県",
      "city": "川越市",
      "jcc": "1120",
      "jcg": "11201"
    },
    {
      "lat": 36.14731,
      "lon": 139.388645,
      "prefecture": "埼玉県",
      "city": "熊谷市",
      "jcc": "1120",
      "jcg": "11202"
    },
    {
      "lat": 35.807738,
      "lon": 139.724171,
      "prefecture": "埼玉県",
      "city": "川口市",
      "jcc": "1120",
      "jcg": "11203"
    },
    {
      "lat": 36.138949,
      "lon": 139.455643,
      "prefecture": "埼玉県",
      "city": "行田市",
      "jcc": "1120",
      "jcg": "11206"
    },
    {
      "lat": 35.992055,
      "lon": 139.084817,
      "prefecture": "埼玉県",
      "city": "秩父市",
      "jcc": "1120",
      "jcg": "11207"
    },
    {
      "lat": 35.799672,
      "lon": 139.46861,
      "prefecture": "埼玉県",
      "city": "所沢市",
      "jcc": "1120",
      "jcg": "11208"
    },
    {
      "lat": 35.855731,
      "lon": 139.327734,
      "prefecture": "埼玉県",
      "city": "飯能市",
      "jcc": "1120",
      "jcg": "11209"
    },
    {
      "lat": 36.131438,
      "lon": 139.601719,
      "prefecture": "埼玉県",
      "city": "加須市",
      "jcc": "1121",
      "jcg": "11210"
    },
    {
      "lat": 36.243568,
      "lon": 139.190393,
      "prefecture": "埼玉県",
      "city": "本庄市",
      "jcc": "1121",
      "jcg": "11211"
    },
    {
      "lat": 36.042126,
      "lon": 139.399959,
      "prefecture": "埼玉県",
      "city": "東松山市",
      "jcc": "1121",
      "jcg": "11212"
    },
    {
      "lat": 35.975198,
      "lon": 139.752301,
      "prefecture": "埼玉県",
      "city": "春日部市",
      "jcc": "1121",
      "jcg": "11214"
    },
    {
      "lat": 35.852942,
      "lon": 139.412213,
      "prefecture": "埼玉県",
      "city": "狭山市",
      "jcc": "1121",
      "jcg": "11215"
    },
    {
      "lat": 36.172626,
      "lon": 139.548465,
      "prefecture": "埼玉県",
      "city": "羽生市",
      "jcc": "1121",
      "jcg": "11216"
    },
    {
      "lat": 36.065758,
      "lon": 139.522169,
      "prefecture": "埼玉県",
      "city": "鴻巣市",
      "jcc": "1121",
      "jcg": "11217"
    },
    {
      "lat": 36.197444,
      "lon": 139.281464,
      "prefecture": "埼玉県",
      "city": "深谷市",
      "jcc": "1121",
      "jcg": "11218"
    },
    {
      "lat": 35.977381,
      "lon": 139.593206,
      "prefecture": "埼玉県",
      "city": "上尾市",
      "jcc": "1121",
      "jcg": "11219"
    },
    {
      "lat": 35.825355,
      "lon": 139.805402,
      "prefecture": "埼玉県",
      "city": "草加市",
      "jcc": "1122",
      "jcg": "11221"
    },
    {
      "lat": 35.891084,
      "lon": 139.790938,
      "prefecture": "埼玉県",
      "city": "越谷市",
      "jcc": "1122",
      "jcg": "11222"
    },
    {
      "lat": 35.825634,
      "lon": 139.679708,
      "prefecture": "埼玉県",
      "city": "蕨市",
      "jcc": "1122",
      "jcg": "11223"
    },
    {
      "lat": 35.817616,
      "lon": 139.677892,
      "prefecture": "埼玉県",
      "city": "戸田市",
      "jcc": "1122",
      "jcg": "11224"
    },
    {
      "lat": 35.835766,
      "lon": 139.391058,
      "prefecture": "埼玉県",
      "city": "入間市",
      "jcc": "1122",
      "jcg": "11225"
    },
    {
      "lat": 35.797252,
      "lon": 139.593916,
      "prefecture": "埼玉県",
      "city": "朝霞市",
      "jcc": "1122",
      "jcg": "11227"
    },
    {
      "lat": 35.83675,
      "lon": 139.580319,
      "prefecture": "埼玉県",
      "city": "志木市",
      "jcc": "1122",
      "jcg": "11228"
    },
    {
      "lat": 35.781208,
      "lon": 139.605793,
      "prefecture": "埼玉県",
      "city": "和光市",
      "jcc": "1122",
      "jcg": "11229"
    },
    {
      "lat": 35.793511,
      "lon": 139.565369,
      "prefecture": "埼玉県",
      "city": "新座市",
      "jcc": "1123",
      "jcg": "11230"
    },
    {
      "lat": 36.005779,
      "lon": 139.542531,
      "prefecture": "埼玉県",
      "city": "桶川市",
      "jcc": "1123",
      "jcg": "11231"
    },
    {
      "lat": 36.061995,
      "lon": 139.666838,
      "prefecture": "埼玉県",
      "city": "久喜市",
      "jcc": "1123",
      "jcg": "11232"
    },
    {
      "lat": 36.026768,
      "lon": 139.530211,
      "prefecture": "埼玉県",
      "city": "北本市",
      "jcc": "1123",
      "jcg": "11233"
    },
    {
      "lat": 35.822536,
      "lon": 139.839175,
      "prefecture": "埼玉県",
      "city": "八潮市",
      "jcc": "1123",
      "jcg": "11234"
    },
    {
      "lat": 35.856759,
      "lon": 139.549074,
      "prefecture": "埼玉県",
      "city": "富士見市",
      "jcc": "1123",
      "jcg": "11235"
    },
    {
      "lat": 35.830149,
      "lon": 139.872275,
      "prefecture": "埼玉県",
      "city": "三郷市",
      "jcc": "1123",
      "jcg": "11237"
    },
    {
      "lat": 35.994307,
      "lon": 139.662106,
      "prefecture": "埼玉県",
      "city": "蓮田市",
      "jcc": "1123",
      "jcg": "11238"
    },
    {
      "lat": 35.95717,
      "lon": 139.402905,
      "prefecture": "埼玉県",
      "city": "坂戸市",
      "jcc": "1123",
      "jcg": "11239"
    },
    {
      "lat": 36.078072,
      "lon": 139.725861,
      "prefecture": "埼玉県",
      "city": "幸手市",
      "jcc": "1124",
      "jcg": "11240"
    },
    {
      "lat": 35.934515,
      "lon": 139.393098,
      "prefecture": "埼玉県",
      "city": "鶴ヶ島市",
      "jcc": "1124",
      "jcg": "11241"
    },
    {
      "lat": 35.907796,
      "lon": 139.339026,
      "prefecture": "埼玉県",
      "city": "日高市",
      "jcc": "1124",
      "jcg": "11242"
    },
    {
      "lat": 35.891152,
      "lon": 139.841375,
      "prefecture": "埼玉県",
      "city": "吉川市",
      "jcc": "1124",
      "jcg": "11243"
    },
    {
      "lat": 35.879538,
      "lon": 139.519764,
      "prefecture": "埼玉県",
      "city": "ふじみ野市",
      "jcc": "1124",
      "jcg": "11245"
    },
    {
      "lat": 36.019026,
      "lon": 139.676925,
      "prefecture": "埼玉県",
      "city": "白岡市",
      "jcc": "1124",
      "jcg": "11246"
    },
    {
      "lat": 36.000112,
      "lon": 139.624185,
      "prefecture": "埼玉県",
      "city": "北足立郡伊奈町",
      "jcc": "1130",
      "jcg": "11301"
    },
    {
      "lat": 35.828367,
      "lon": 139.526432,
      "prefecture": "埼玉県",
      "city": "入間郡三芳町",
      "jcc": "1132",
      "jcg": "11324"
    },
    {
      "lat": 35.941501,
      "lon": 139.316067,
      "prefecture": "埼玉県",
      "city": "入間郡毛呂山町",
      "jcc": "1132",
      "jcg": "11326"
    },
    {
      "lat": 35.964478,
      "lon": 139.294199,
      "prefecture": "埼玉県",
      "city": "入間郡越生町",
      "jcc": "1132",
      "jcg": "11327"
    },
    {
      "lat": 36.065987,
      "lon": 139.360917,
      "prefecture": "埼玉県",
      "city": "比企郡滑川町",
      "jcc": "1134",
      "jcg": "11341"
    },
    {
      "lat": 36.056655,
      "lon": 139.320542,
      "prefecture": "埼玉県",
      "city": "比企郡嵐山町",
      "jcc": "1134",
      "jcg": "11342"
    },
    {
      "lat": 36.056697,
      "lon": 139.261845,
      "prefecture": "埼玉県",
      "city": "比企郡小川町",
      "jcc": "1134",
      "jcg": "11343"
    },
    {
      "lat": 35.982014,
      "lon": 139.481518,
      "prefecture": "埼玉県",
      "city": "比企郡川島町",
      "jcc": "1134",
      "jcg": "11346"
    },
    {
      "lat": 36.039853,
      "lon": 139.453728,
      "prefecture": "埼玉県",
      "city": "比企郡吉見町",
      "jcc": "1134",
      "jcg": "11347"
    },
    {
      "lat": 35.981466,
      "lon": 139.334101,
      "prefecture": "埼玉県",
      "city": "比企郡鳩山町",
      "jcc": "1134",
      "jcg": "11348"
    },
    {
      "lat": 36.00862,
      "lon": 139.296844,
      "prefecture": "埼玉県",
      "city": "比企郡ときがわ町",
      "jcc": "1134",
      "jcg": "11349"
    },
    {
      "lat": 35.987284,
      "lon": 139.100046,
      "prefecture": "埼玉県",
      "city": "秩父郡横瀬町",
      "jcc": "1136",
      "jcg": "11361"
    },
    {
      "lat": 36.07084,
      "lon": 139.098754,
      "prefecture": "埼玉県",
      "city": "秩父郡皆野町",
      "jcc": "1136",
      "jcg": "11362"
    },
    {
      "lat": 36.114803,
      "lon": 139.109717,
      "prefecture": "埼玉県",
      "city": "秩父郡長瀞町",
      "jcc": "1136",
      "jcg": "11363"
    },
    {
      "lat": 36.017129,
      "lon": 139.008574,
      "prefecture": "埼玉県",
      "city": "秩父郡小鹿野町",
      "jcc": "1136",
      "jcg": "11365"
    },
    {
      "lat": 36.058153,
      "lon": 139.194607,
      "prefecture": "埼玉県",
      "city": "秩父郡東秩父村",
      "jcc": "1136",
      "jcg": "11369"
    },
    {
      "lat": 36.177104,
      "lon": 139.18141,
      "prefecture": "埼玉県",
      "city": "児玉郡美里町",
      "jcc": "1138",
      "jcg": "11381"
    },
    {
      "lat": 36.213876,
      "lon": 139.101776,
      "prefecture": "埼玉県",
      "city": "児玉郡神川町",
      "jcc": "1138",
      "jcg": "11383"
    },
    {
      "lat": 36.251607,
      "lon": 139.144826,
      "prefecture": "埼玉県",
      "city": "児玉郡上里町",
      "jcc": "1138",
      "jcg": "11385"
    },
    {
      "lat": 36.118348,
      "lon": 139.193012,
      "prefecture": "埼玉県",
      "city": "大里郡寄居町",
      "jcc": "1140",
      "jcg": "11408"
    },
    {
      "lat": 36.022682,
      "lon": 139.722885,
      "prefecture": "埼玉県",
      "city": "南埼玉郡宮代町",
      "jcc": "1144",
      "jcg": "11442"
    },
    {
      "lat": 36.025765,
      "lon": 139.736709,
      "prefecture": "埼玉県",
      "city": "北葛飾郡杉戸町",
      "jcc": "1146",
      "jcg": "11464"
    },
    {
      "lat": 35.925774,
      "lon": 139.815178,
      "prefecture": "埼玉県",
      "city": "北葛飾郡松伏町",
      "jcc": "1146",
      "jcg": "11465"
    },
    {
      "lat": 35.608932,
      "lon": 140.124636,
      "prefecture": "千葉県",
      "city": "千葉市中央区",
      "jcc": "1210",
      "jcg": "12101"
    },
    {
      "lat": 35.662977,
      "lon": 140.069167,
      "prefecture": "千葉県",
      "city": "千葉市花見川区",
      "jcc": "1210",
      "jcg": "12102"
    },
    {
      "lat": 35.636212,
      "lon": 140.107083,
      "prefecture": "千葉県",
      "city": "千葉市稲毛区",
      "jcc": "1210",
      "jcg": "12103"
    },
    {
      "lat": 35.633988,
      "lon": 140.155661,
      "prefecture": "千葉県",
      "city": "千葉市若葉区",
      "jcc": "1210",
      "jcg": "12104"
    },
    {
      "lat": 35.560459,
      "lon": 140.176164,
      "prefecture": "千葉県",
      "city": "千葉市緑区",
      "jcc": "1210",
      "jcg": "12105"
    },
    {
      "lat": 35.640485,
      "lon": 140.06304,
      "prefecture": "千葉県",
      "city": "千葉市美浜区",
      "jcc": "1210",
      "jcg": "12106"
    },
    {
      "lat": 35.734681,
      "lon": 140.826641,
      "prefecture": "千葉県",
      "city": "銚子市",
      "jcc": "1220",
      "jcg": "12202"
    },
    {
      "lat": 35.721912,
      "lon": 139.93101,
      "prefecture": "千葉県",
      "city": "市川市",
      "jcc": "1220",
      "jcg": "12203"
    },
    {
      "lat": 35.694706,
      "lon": 139.982618,
      "prefecture": "千葉県",
      "city": "船橋市",
      "jcc": "1220",
      "jcg": "12204"
    },
    {
      "lat": 34.996506,
      "lon": 139.869965,
      "prefecture": "千葉県",
      "city": "館山市",
      "jcc": "1220",
      "jcg": "12205"
    },
    {
      "lat": 35.381227,
      "lon": 139.92486,
      "prefecture": "千葉県",
      "city": "木更津市",
      "jcc": "1220",
      "jcg": "12206"
    },
    {
      "lat": 35.787649,
      "lon": 139.903093,
      "prefecture": "千葉県",
      "city": "松戸市",
      "jcc": "1220",
      "jcg": "12207"
    },
    {
      "lat": 35.955192,
      "lon": 139.874764,
      "prefecture": "千葉県",
      "city": "野田市",
      "jcc": "1220",
      "jcg": "12208"
    },
    {
      "lat": 35.428544,
      "lon": 140.288027,
      "prefecture": "千葉県",
      "city": "茂原市",
      "jcc": "1221",
      "jcg": "12210"
    },
    {
      "lat": 35.776608,
      "lon": 140.318781,
      "prefecture": "千葉県",
      "city": "成田市",
      "jcc": "1221",
      "jcg": "12211"
    },
    {
      "lat": 35.723486,
      "lon": 140.223964,
      "prefecture": "千葉県",
      "city": "佐倉市",
      "jcc": "1221",
      "jcg": "12212"
    },
    {
      "lat": 35.559944,
      "lon": 140.366092,
      "prefecture": "千葉県",
      "city": "東金市",
      "jcc": "1221",
      "jcg": "12213"
    },
    {
      "lat": 35.720434,
      "lon": 140.646469,
      "prefecture": "千葉県",
      "city": "旭市",
      "jcc": "1221",
      "jcg": "12215"
    },
    {
      "lat": 35.683035,
      "lon": 140.024365,
      "prefecture": "千葉県",
      "city": "習志野市",
      "jcc": "1221",
      "jcg": "12216"
    },
    {
      "lat": 35.867612,
      "lon": 139.97585,
      "prefecture": "千葉県",
      "city": "柏市",
      "jcc": "1221",
      "jcg": "12217"
    },
    {
      "lat": 35.152283,
      "lon": 140.320932,
      "prefecture": "千葉県",
      "city": "勝浦市",
      "jcc": "1221",
      "jcg": "12218"
    },
    {
      "lat": 35.497838,
      "lon": 140.115665,
      "prefecture": "千葉県",
      "city": "市原市",
      "jcc": "1221",
      "jcg": "12219"
    },
    {
      "lat": 35.85631,
      "lon": 139.90266,
      "prefecture": "千葉県",
      "city": "流山市",
      "jcc": "1222",
      "jcg": "12220"
    },
    {
      "lat": 35.722468,
      "lon": 140.099772,
      "prefecture": "千葉県",
      "city": "八千代市",
      "jcc": "1222",
      "jcg": "12221"
    },
    {
      "lat": 35.864123,
      "lon": 140.028225,
      "prefecture": "千葉県",
      "city": "我孫子市",
      "jcc": "1222",
      "jcg": "12222"
    },
    {
      "lat": 35.113987,
      "lon": 140.098711,
      "prefecture": "千葉県",
      "city": "鴨川市",
      "jcc": "1222",
      "jcg": "12223"
    },
    {
      "lat": 35.77675,
      "lon": 140.00079,
      "prefecture": "千葉県",
      "city": "鎌ケ谷市",
      "jcc": "1222",
      "jcg": "12224"
    },
    {
      "lat": 35.33045,
      "lon": 139.902677,
      "prefecture": "千葉県",
      "city": "君津市",
      "jcc": "1222",
      "jcg": "12225"
    },
    {
      "lat": 35.30412,
      "lon": 139.857105,
      "prefecture": "千葉県",
      "city": "富津市",
      "jcc": "1222",
      "jcg": "12226"
    },
    {
      "lat": 35.653984,
      "lon": 139.902203,
      "prefecture": "千葉県",
      "city": "浦安市",
      "jcc": "1222",
      "jcg": "12227"
    },
    {
      "lat": 35.669816,
      "lon": 140.167925,
      "prefecture": "千葉県",
      "city": "四街道市",
      "jcc": "1222",
      "jcg": "12228"
    },
    {
      "lat": 35.429808,
      "lon": 139.95443,
      "prefecture": "千葉県",
      "city": "袖ケ浦市",
      "jcc": "1222",
      "jcg": "12229"
    },
    {
      "lat": 35.665917,
      "lon": 140.317952,
      "prefecture": "千葉県",
      "city": "八街市",
      "jcc": "1223",
      "jcg": "12230"
    },
    {
      "lat": 35.832348,
      "lon": 140.145815,
      "prefecture": "千葉県",
      "city": "印西市",
      "jcc": "1223",
      "jcg": "12231"
    },
    {
      "lat": 35.7915,
      "lon": 140.056372,
      "prefecture": "千葉県",
      "city": "白井市",
      "jcc": "1223",
      "jcg": "12232"
    },
    {
      "lat": 35.726808,
      "lon": 140.343058,
      "prefecture": "千葉県",
      "city": "富里市",
      "jcc": "1223",
      "jcg": "12233"
    },
    {
      "lat": 35.042991,
      "lon": 139.840128,
      "prefecture": "千葉県",
      "city": "南房総市",
      "jcc": "1223",
      "jcg": "12234"
    },
    {
      "lat": 35.707917,
      "lon": 140.564281,
      "prefecture": "千葉県",
      "city": "匝瑳市",
      "jcc": "1223",
      "jcg": "12235"
    },
    {
      "lat": 35.897735,
      "lon": 140.499268,
      "prefecture": "千葉県",
      "city": "香取市",
      "jcc": "1223",
      "jcg": "12236"
    },
    {
      "lat": 35.602964,
      "lon": 140.413506,
      "prefecture": "千葉県",
      "city": "山武市",
      "jcc": "1223",
      "jcg": "12237"
    },
    {
      "lat": 35.253889,
      "lon": 140.385051,
      "prefecture": "千葉県",
      "city": "いすみ市",
      "jcc": "1223",
      "jcg": "12238"
    },
    {
      "lat": 35.521708,
      "lon": 140.32096,
      "prefecture": "千葉県",
      "city": "大網白里市",
      "jcc": "1223",
      "jcg": "12239"
    },
    {
      "lat": 35.724824,
      "lon": 140.269547,
      "prefecture": "千葉県",
      "city": "印旛郡酒々井町",
      "jcc": "1232",
      "jcg": "12322"
    },
    {
      "lat": 35.840784,
      "lon": 140.243831,
      "prefecture": "千葉県",
      "city": "印旛郡栄町",
      "jcc": "1232",
      "jcg": "12329"
    },
    {
      "lat": 35.901602,
      "lon": 140.405285,
      "prefecture": "千葉県",
      "city": "香取郡神崎町",
      "jcc": "1234",
      "jcg": "12342"
    },
    {
      "lat": 35.735434,
      "lon": 140.467728,
      "prefecture": "千葉県",
      "city": "香取郡多古町",
      "jcc": "1234",
      "jcg": "12347"
    },
    {
      "lat": 35.83715,
      "lon": 140.668581,
      "prefecture": "千葉県",
      "city": "香取郡東庄町",
      "jcc": "1234",
      "jcg": "12349"
    },
    {
      "lat": 35.535062,
      "lon": 140.44025,
      "prefecture": "千葉県",
      "city": "山武郡九十九里町",
      "jcc": "1240",
      "jcg": "12403"
    },
    {
      "lat": 35.693056,
      "lon": 140.414194,
      "prefecture": "千葉県",
      "city": "山武郡芝山町",
      "jcc": "1240",
      "jcg": "12409"
    },
    {
      "lat": 35.665568,
      "lon": 140.504309,
      "prefecture": "千葉県",
      "city": "山武郡横芝光町",
      "jcc": "1241",
      "jcg": "12410"
    },
    {
      "lat": 35.372623,
      "lon": 140.368659,
      "prefecture": "千葉県",
      "city": "長生郡一宮町",
      "jcc": "1242",
      "jcg": "12421"
    },
    {
      "lat": 35.361088,
      "lon": 140.319273,
      "prefecture": "千葉県",
      "city": "長生郡睦沢町",
      "jcc": "1242",
      "jcg": "12422"
    },
    {
      "lat": 35.412184,
      "lon": 140.35406,
      "prefecture": "千葉県",
      "city": "長生郡長生村",
      "jcc": "1242",
      "jcg": "12423"
    },